{"type":"FeatureCollection","features":[{"type":"Feature","geometry":{"type":"Point","coordinates":[1.9535065,47.9135808]},"properties":{"title":"\u003Ca href=\u0022http:\/\/abrayliens.communityforge.net\u0022\u003EAbrayliens\u003C\/a\u003E","description":"\u003Cimg src = \u0022http:\/\/abrayliens.communityforge.net\/system\/files\/st jean de braye.jpg\u0022 align=\u0022left\u0022 width=\u002230\u0022\u003E\u003Cbr \/\u003EActive members: 25","marker-color":"#0571BC"}},{"type":"Feature","geometry":{"type":"Point","coordinates":[5.7322884,45.5040611]},"properties":{"title":"\u003Ca href=\u0022http:\/\/alissel.communityforge.net\u0022\u003ESel d\u0027Alisse\u003C\/a\u003E","description":"\u003Cimg src = \u0022http:\/\/alissel.communityforge.net\/system\/files\/209px-Chestnut.jpg\u0022 align=\u0022left\u0022 width=\u002230\u0022\u003ECr\u00e9ons des \u00e9changes !\u003Cbr \/\u003EActive members: 4","marker-color":"#0571BC"}},{"type":"Feature","geometry":{"type":"Point","coordinates":[2.0464611,48.8105376]},"properties":{"title":"\u003Ca href=\u0022http:\/\/alternatisel.communityforge.net\u0022\u003EAlternatiSel\u003C\/a\u003E","description":"\u003Cimg src = \u0022http:\/\/alternatisel.communityforge.net\/system\/files\/logo alternatisel v5_0.png\u0022 align=\u0022left\u0022 width=\u002230\u0022\u003ELe lien est plus fort que le bien\u003Cbr \/\u003EActive members: 14","marker-color":"#0571BC"}},{"type":"Feature","geometry":{"type":"Point","coordinates":[-1.9703293,47.412291]},"properties":{"title":"\u003Ca href=\u0022http:\/\/arcenselcampbon.communityforge.net\u0022\u003EArc-en-SEL de Campbon\u003C\/a\u003E","description":"\u003Cimg src = \u0022http:\/\/arcenselcampbon.communityforge.net\/system\/files\/logo SEL.png\u0022 align=\u0022left\u0022 width=\u002230\u0022\u003E\u003Cbr \/\u003EActive members: 5","marker-color":"#0571BC"}},{"type":"Feature","geometry":{"type":"Point","coordinates":[23.7332153,37.9845278]},"properties":{"title":"\u003Ca href=\u0022http:\/\/athens.communityforge.net\u0022\u003EAthens Integral Cooperative\u003C\/a\u003E","description":"\u003Cimg src = \u0022http:\/\/athens.communityforge.net\/system\/files\/Cooperativas ICAC1.jpg\u0022 align=\u0022left\u0022 width=\u002230\u0022\u003E\u039f\u03bb\u03bf\u03ba\u03bb\u03b7\u03c1\u03c9\u03bc\u03ad\u03bd\u03b7 \u039a\u03bf\u03bf\u03c0\u03b5\u03c1\u03b1\u03c4\u03af\u03b2\u03b1 \u0391\u03b8\u03b7\u03bd\u03ce\u03bd\u003Cbr \/\u003EActive members: 9","marker-color":"#0571BC"}},{"type":"Feature","geometry":{"type":"Point","coordinates":[5.183815,44.067689]},"properties":{"title":"\u003Ca href=\u0022http:\/\/avec.communityforge.net\u0022\u003Eavec.communityforge.net\u003C\/a\u003E","description":"\u003Cimg src = \u0022http:\/\/avec.communityforge.net\/system\/files\/logo.png\u0022 align=\u0022left\u0022 width=\u002230\u0022\u003ESite de partages et de services du pi\u00e9mont du Ventoux\u003Cbr \/\u003EActive members: 6","marker-color":"#0571BC"}},{"type":"Feature","geometry":{"type":"Point","coordinates":[1.6342163,47.7780978]},"properties":{"title":"\u003Ca href=\u0022http:\/\/beaugen.communityforge.net\u0022\u003ELe grenier \u00e0 SEL\u003C\/a\u003E","description":"\u003Cimg src = \u0022http:\/\/beaugen.communityforge.net\/sites\/beaugensel.fr\/files\/logo_beaugency.jpg\u0022 align=\u0022left\u0022 width=\u002230\u0022\u003EPour changer, \u00e9changeons!\u003Cbr \/\u003EActive members: 14","marker-color":"#0571BC"}},{"type":"Feature","geometry":{"type":"Point","coordinates":[-0.5436516,44.8120445]},"properties":{"title":"\u003Ca href=\u0022http:\/\/beglesel.communityforge.net\u0022\u003EBegleSel\u003C\/a\u003E","description":"\u003Cimg src = \u0022http:\/\/beglesel.communityforge.net\/system\/files\/beglesel_ logo.jpg\u0022 align=\u0022left\u0022 width=\u002230\u0022\u003E\u003Cbr \/\u003EActive members: 15","marker-color":"#0571BC"}},{"type":"Feature","geometry":{"type":"Point","coordinates":[6.0240539,47.237829]},"properties":{"title":"\u003Ca href=\u0022http:\/\/besansel.fr\u0022\u003Ebesansel.fr\u003C\/a\u003E","description":"\u003Cimg src = \u0022http:\/\/besansel.fr\/sites\/univers-sel.be\/files\/sky_seldulac_logo.png\u0022 align=\u0022left\u0022 width=\u002230\u0022\u003EPour changer, \u00e9changeons !\u003Cbr \/\u003EActive members: 22","marker-color":"#0571BC"}},{"type":"Feature","geometry":{"type":"Point","coordinates":[-1.7996979,48.6061278]},"properties":{"title":"\u003Ca href=\u0022http:\/\/bleu.communityforge.net\u0022\u003EAtoutSEL\u003C\/a\u003E","description":"\u003Cimg src = \u0022http:\/\/bleu.communityforge.net\/sites\/bleu.communityforge.net\/files\/sky_seldulac_logo.jpg\u0022 align=\u0022left\u0022 width=\u002230\u0022\u003ELe lien vaut mieux que le bien\u003Cbr \/\u003EActive members: 50","marker-color":"#0571BC"}},{"type":"Feature","geometry":{"type":"Point","coordinates":[-0.2310562,47.339288]},"properties":{"title":"\u003Ca href=\u0022http:\/\/bosseldeloire.communityforge.net\u0022\u003Ebosseldeloire\u003C\/a\u003E","description":"\u003Cimg src = \u0022http:\/\/bosseldeloire.communityforge.net\/system\/files\/Bossel de Loire C.jpg\u0022 align=\u0022left\u0022 width=\u002230\u0022\u003ELe syst\u00e8me d\u0027\u00e9change local du Gennois et des environs\u003Cbr \/\u003EActive members: 10","marker-color":"#0571BC"}},{"type":"Feature","geometry":{"type":"Point","coordinates":[5.8265305,44.5417923]},"properties":{"title":"\u003Ca href=\u0022http:\/\/buechange.fr.nf\u0022\u003EBuechange solidaire\u003C\/a\u003E","description":"Syst\u00e8me d\u0027Echange Local\u003Cbr \/\u003EActive members: 5","marker-color":"#0571BC"}},{"type":"Feature","geometry":{"type":"Point","coordinates":[5.1038361,50.2937261]},"properties":{"title":"\u003Ca href=\u0022http:\/\/cirosel.be\u0022\u003ECi-Ro-SEL\u003C\/a\u003E","description":"\u003Cimg src = \u0022http:\/\/cirosel.be\/sites\/cirosel.be\/files\/sky_seldulac_logo.jpg\u0022 align=\u0022left\u0022 width=\u002230\u0022\u003ELe SEL de Ciney et Rochefort \u003Cbr \/\u003EActive members: 49","marker-color":"#0571BC"}},{"type":"Feature","geometry":{"type":"Point","coordinates":[4.6894455,50.5651396]},"properties":{"title":"\u003Ca href=\u0022http:\/\/clesdesel.be\u0022\u003ECl\u00e9s de SEL \u003C\/a\u003E","description":"\u003Cimg src = \u0022http:\/\/clesdesel.be\/sites\/clesdesel.be\/files\/sky_seldulac_logo.jpg\u0022 align=\u0022left\u0022 width=\u002230\u0022\u003ELe Syst\u00e8me d\u0027Echange Local de Gembloux et ses Villages\u003Cbr \/\u003EActive members: 69","marker-color":"#0571BC"}},{"type":"Feature","geometry":{"type":"Point","coordinates":[2.8379059,50.7068951]},"properties":{"title":"\u003Ca href=\u0022http:\/\/coeurdesel.communityforge.net\u0022\u003ECoeur de Sel\u003C\/a\u003E","description":"\u003Cimg src = \u0022http:\/\/coeurdesel.communityforge.net\/system\/files\/13718796_1656807027976895_4006705929821429496_n.jpg\u0022 align=\u0022left\u0022 width=\u002230\u0022\u003E\u003Cbr \/\u003EActive members: 3","marker-color":"#0571BC"}},{"type":"Feature","geometry":{"type":"Point","coordinates":[5.928,43.124228]},"properties":{"title":"\u003Ca href=\u0022http:\/\/coin-jeu.communityforge.net\u0022\u003ECoin-JEU Toulon\u003C\/a\u003E","description":"\u003Cimg src = \u0022http:\/\/coin-jeu.communityforge.net\/sites\/coin-jeu.communityforge.net\/files\/sky_seldulac_logo.png\u0022 align=\u0022left\u0022 width=\u002230\u0022\u003E\u00ab Une alternative simple et conviviale \u00e0 l\u0027argent \u00bb\u003Cbr \/\u003EActive members: 17","marker-color":"#0571BC"}},{"type":"Feature","geometry":{"type":"Point","coordinates":[6.929273,46.989987]},"properties":{"title":"\u003Ca href=\u0022http:\/\/csrfv-bacasable.communityforge.net\u0022\u003EC-S-R-F-V.Bac a sable\u003C\/a\u003E","description":"\u003Cimg src = \u0022http:\/\/csrfv-bacasable.communityforge.net\/system\/files\/Intersel_0.jpg\u0022 align=\u0022left\u0022 width=\u002230\u0022\u003ECoordination Suisse Romande \u0026 France Voisine\u003Cbr \/\u003EActive members: 10","marker-color":"#0571BC"}},{"type":"Feature","geometry":{"type":"Point","coordinates":[6.929273,46.989987]},"properties":{"title":"\u003Ca href=\u0022http:\/\/csrfv.communityforge.net\u0022\u003EC-S-R-F-V\u003C\/a\u003E","description":"\u003Cimg src = \u0022http:\/\/csrfv.communityforge.net\/system\/files\/csrfv.jpg\u0022 align=\u0022left\u0022 width=\u002230\u0022\u003ECoordination Suisse Romande \u0026 France Voisine\u003Cbr \/\u003EActive members: 15","marker-color":"#0571BC"}},{"type":"Feature","geometry":{"type":"Point","coordinates":[43.0835368,-89.3643483]},"properties":{"title":"\u003Ca href=\u0022http:\/\/danecountytimebank.org\u0022\u003EDane County TimeBank\u003C\/a\u003E","description":"\u003Cimg src = \u0022http:\/\/danecountytimebank.org\/sites\/danecountytimebank.org\/files\/dctb_logo.gif\u0022 align=\u0022left\u0022 width=\u002230\u0022\u003ENeighbors Helping Neighbors\u003Cbr \/\u003EActive members: 83","marker-color":"#0571BC"}},{"type":"Feature","geometry":{"type":"Point","coordinates":[4.8693466,50.4669019]},"properties":{"title":"\u003Ca href=\u0022http:\/\/defisel.be\u0022\u003EDEFISel\u003C\/a\u003E","description":"\u003Cimg src = \u0022http:\/\/defisel.be\/sites\/defisel.be\/files\/sky_seldulac_logo.jpg\u0022 align=\u0022left\u0022 width=\u002230\u0022\u003EPour changer..., Echangeons !\u003Cbr \/\u003EActive members: 36","marker-color":"#0571BC"}},{"type":"Feature","geometry":{"type":"Point","coordinates":[5.0316717623355,47.315108206886]},"properties":{"title":"\u003Ca href=\u0022http:\/\/dijon.communityforge.net\u0022\u003ESELlier du Dijonnais\u003C\/a\u003E","description":"\u003Cimg src = \u0022http:\/\/dijon.communityforge.net\/sites\/dijon.communityforge.net\/files\/sky_seldulac_logo.gif\u0022 align=\u0022left\u0022 width=\u002230\u0022\u003ELe lien est plus important que le bien\u003Cbr \/\u003EActive members: 18","marker-color":"#0571BC"}},{"type":"Feature","geometry":{"type":"Point","coordinates":[24.0188599,35.5153212]},"properties":{"title":"\u003Ca href=\u0022http:\/\/diktyoantallagonxanion.net\u0022\u003E\u0394\u03af\u03ba\u03c4\u03c5\u03bf \u0391\u03bd\u03c4\u03b1\u03bb\u03bb\u03b1\u03b3\u03ce\u03bd \u03a7\u03b1\u03bd\u03af\u03c9\u03bd\u003C\/a\u003E","description":"\u003Cimg src = \u0022http:\/\/diktyoantallagonxanion.net\/system\/files\/final_logo.jpg\u0022 align=\u0022left\u0022 width=\u002230\u0022\u003E\u003Cbr \/\u003EActive members: 24","marker-color":"#0571BC"}},{"type":"Feature","geometry":{"type":"Point","coordinates":[4.9129486,50.2608149]},"properties":{"title":"\u003Ca href=\u0022http:\/\/dina-sel.net\u0022\u003EDinaSEL, le SEL de Dinant\u003C\/a\u003E","description":"\u003Cimg src = \u0022http:\/\/dina-sel.net\/sites\/dina-sel.net\/files\/Logo.png\u0022 align=\u0022left\u0022 width=\u002230\u0022\u003EMettez du SEL dans votre vie !\u003Cbr \/\u003EActive members: 19","marker-color":"#0571BC"}},{"type":"Feature","geometry":{"type":"Point","coordinates":[2.357443,48.936181]},"properties":{"title":"\u003Ca href=\u0022http:\/\/dionyssel.org\u0022\u003EDionys\u0027SEL\u003C\/a\u003E","description":"\u003Cimg src = \u0022http:\/\/dionyssel.org\/sites\/dionyssel.org\/files\/sky_seldulac_logo.jpg\u0022 align=\u0022left\u0022 width=\u002230\u0022\u003EPlus de lien, moins de biens !\u003Cbr \/\u003EActive members: 15","marker-color":"#0571BC"}},{"type":"Feature","geometry":{"type":"Point","coordinates":[5.49344,50.3533471]},"properties":{"title":"\u003Ca href=\u0022http:\/\/durbuysel.be\u0022\u003EDurbuy\u0027SEL\u003C\/a\u003E","description":"\u003Cimg src = \u0022http:\/\/durbuysel.be\/system\/files\/sel.png\u0022 align=\u0022left\u0022 width=\u002230\u0022\u003EL\u0027abondance est le fruit du partage\u003Cbr \/\u003EActive members: 23","marker-color":"#0571BC"}},{"type":"Feature","geometry":{"type":"Point","coordinates":[-1.3138103,46.9744548]},"properties":{"title":"\u003Ca href=\u0022http:\/\/echangedesavoirs.communityforge.net\u0022\u003ER\u00e9seau d\u0027\u00e9changes et savoirs-faire solidaire\u003C\/a\u003E","description":"\u003Cimg src = \u0022http:\/\/echangedesavoirs.communityforge.net\/system\/files\/LOGO CASA\u0027CO POUR IMPRESSION.jpg\u0022 align=\u0022left\u0022 width=\u002230\u0022\u003E- - - - - - - - Mise en relation entre particuliers souhaitant s\u2019entraider et \u00e9changer.\u003Cbr \/\u003EActive members: 10","marker-color":"#0571BC"}},{"type":"Feature","geometry":{"type":"Point","coordinates":[6.4407349,48.1880635]},"properties":{"title":"\u003Ca href=\u0022http:\/\/episel.communityforge.net\u0022\u003EEpisel d\u0027Epinal\u003C\/a\u003E","description":"\u003Cimg src = \u0022http:\/\/episel.communityforge.net\/system\/files\/Logo EpiSEL Trans.png\u0022 align=\u0022left\u0022 width=\u002230\u0022\u003E\u003Cbr \/\u003EActive members: 47","marker-color":"#0571BC"}},{"type":"Feature","geometry":{"type":"Point","coordinates":[-1.3664246,48.6891473]},"properties":{"title":"\u003Ca href=\u0022http:\/\/essensel.communityforge.net\u0022\u003EEssen\u0027Sel\u003C\/a\u003E","description":"\u003Cimg src = \u0022http:\/\/essensel.communityforge.net\/system\/files\/logoessensel.jpg\u0022 align=\u0022left\u0022 width=\u002230\u0022\u003E\u003Cbr \/\u003EActive members: 16","marker-color":"#0571BC"}},{"type":"Feature","geometry":{"type":"Point","coordinates":[-1.7495728,48.4100609]},"properties":{"title":"\u003Ca href=\u0022http:\/\/estunsel.fr\u0022\u003EEstunSEL \u003C\/a\u003E","description":"\u003Cimg src = \u0022http:\/\/estunsel.fr\/sites\/estunsel.fr\/files\/sky_seldulac_logo.jpg\u0022 align=\u0022left\u0022 width=\u002230\u0022\u003EPour changer, \u00e9changeons !\u003Cbr \/\u003EActive members: 23","marker-color":"#0571BC"}},{"type":"Feature","geometry":{"type":"Point","coordinates":[1.9511032,48.7552834]},"properties":{"title":"\u003Ca href=\u0022http:\/\/etinsel.communityforge.net\u0022\u003EUne \u00c9tinSEL \u00e0 La Verri\u00e8re\u003C\/a\u003E","description":"\u003Cimg src = \u0022http:\/\/etinsel.communityforge.net\/system\/files\/etinsel.jpg\u0022 align=\u0022left\u0022 width=\u002230\u0022\u003ENe laissez pas la peur gouverner votre vie (Nathalie Dessay)\u003Cbr \/\u003EActive members: 5","marker-color":"#0571BC"}},{"type":"Feature","geometry":{"type":"Point","coordinates":[6.6350555,46.5217844]},"properties":{"title":"\u003Ca href=\u0022http:\/\/exchange.biomimicry.communityforge.net\u0022\u003EBiomimicry Credit Exchange\u003C\/a\u003E","description":"Connecting the biomimicry community to our own abundance\u003Cbr \/\u003EActive members: 1","marker-color":"#0571BC"}},{"type":"Feature","geometry":{"type":"Point","coordinates":[-0.364995,44.6854979]},"properties":{"title":"\u003Ca href=\u0022http:\/\/fi-sel.communityforge.net\u0022\u003EFI-SEL\u003C\/a\u003E","description":"\u003Cimg src = \u0022http:\/\/fi-sel.communityforge.net\/system\/files\/Logo FiSel.jpg\u0022 align=\u0022left\u0022 width=\u002230\u0022\u003ELe SEL du vallon de l\u0027Artolie\u003Cbr \/\u003EActive members: 21","marker-color":"#0571BC"}},{"type":"Feature","geometry":{"type":"Point","coordinates":[-4.0965271,47.9972739]},"properties":{"title":"\u003Ca href=\u0022http:\/\/fleurdeblenoir.fr\u0022\u003ESel Fleur de Bl\u00e9 Noir\u003C\/a\u003E","description":"Syst\u00e8me d\u0027Echange Local de la r\u00e9gion de Quimper\u003Cbr \/\u003EActive members: 32","marker-color":"#0571BC"}},{"type":"Feature","geometry":{"type":"Point","coordinates":[4.0649414,45.6063521]},"properties":{"title":"\u003Ca href=\u0022http:\/\/forez.communityforge.net\u0022\u003ESyst\u00e8me d\u0027Echanges Local : \u0022Sel du Forez\u0022\u003C\/a\u003E","description":"\u003Cimg src = \u0022http:\/\/forez.communityforge.net\/system\/files\/Logo JPEG_3.jpg\u0022 align=\u0022left\u0022 width=\u002230\u0022\u003EBienvenue sur le site du Forez\u003Cbr \/\u003EActive members: 15","marker-color":"#0571BC"}},{"type":"Feature","geometry":{"type":"Point","coordinates":[-0.6262207,44.8023012]},"properties":{"title":"\u003Ca href=\u0022http:\/\/gabare.communityforge.net\u0022\u003ESEL Gabare\u003C\/a\u003E","description":"\u003Cimg src = \u0022http:\/\/gabare.communityforge.net\/sites\/gabare.communityforge.net\/files\/sky_seldulac_logo.jpg\u0022 align=\u0022left\u0022 width=\u002230\u0022\u003ELe SEL de Pessac et de la M\u00e9tropole Bordelaise depuis plus de 20 ans !!! \u003Cbr \/\u003EActive members: 28","marker-color":"#0571BC"}},{"type":"Feature","geometry":{"type":"Point","coordinates":[2.1925449,48.8083897]},"properties":{"title":"\u003Ca href=\u0022http:\/\/galiote.communityforge.net\u0022\u003ELA GALIOTE\u003C\/a\u003E","description":"\u003Cimg src = \u0022http:\/\/galiote.communityforge.net\/system\/files\/LOGO FLYER.jpg\u0022 align=\u0022left\u0022 width=\u002230\u0022\u003ELe lien est plus important que le bien\u003Cbr \/\u003EActive members: 5","marker-color":"#0571BC"}},{"type":"Feature","geometry":{"type":"Point","coordinates":[4.9390411,49.981254]},"properties":{"title":"\u003Ca href=\u0022http:\/\/gedisel.communityforge.net\u0022\u003EGedisel\u003C\/a\u003E","description":"\u003Cimg src = \u0022http:\/\/gedisel.communityforge.net\/system\/files\/logo Gedisel.jpg\u0022 align=\u0022left\u0022 width=\u002230\u0022\u003EEt la Vie \u00e9tincelle\u003Cbr \/\u003EActive members: 14","marker-color":"#0571BC"}},{"type":"Feature","geometry":{"type":"Point","coordinates":[5.5838013,50.6303]},"properties":{"title":"\u003Ca href=\u0022http:\/\/gmsel.be\u0022\u003EGMSel.be\u003C\/a\u003E","description":"\u003Cimg src = \u0022http:\/\/gmsel.be\/system\/files\/GMselwebpetit_0.jpg\u0022 align=\u0022left\u0022 width=\u002230\u0022\u003EDes \u00e9changes \u00e0 l\u0027appel\u003Cbr \/\u003EActive members: 20","marker-color":"#0571BC"}},{"type":"Feature","geometry":{"type":"Point","coordinates":[1.5682983,48.789676]},"properties":{"title":"\u003Ca href=\u0022http:\/\/grain2sel.net\u0022\u003Egrain2sel.net\u003C\/a\u003E","description":"\u003Cimg src = \u0022http:\/\/grain2sel.net\/system\/files\/Capture d\u2019\u00e9cran 2014-08-25 \u00e0 09.14.42.png\u0022 align=\u0022left\u0022 width=\u002230\u0022\u003ESyst\u00e8me d\u0027\u00e9change local - Pays Drouais et Houdanais\u003Cbr \/\u003EActive members: 19","marker-color":"#0571BC"}},{"type":"Feature","geometry":{"type":"Point","coordinates":[4.9596405,50.1104511]},"properties":{"title":"\u003Ca href=\u0022http:\/\/hb-sel.be\u0022\u003EHou L\u0027Beau Sel\u003C\/a\u003E","description":"\u003Cimg src = \u0022http:\/\/hb-sel.be\/sites\/hb-sel.be\/files\/sky_seldulac_logo.png\u0022 align=\u0022left\u0022 width=\u002230\u0022\u003EService d\u0027\u00e9change local Houyet - Beauraing\u003Cbr \/\u003EActive members: 34","marker-color":"#0571BC"}},{"type":"Feature","geometry":{"type":"Point","coordinates":[1.3774109,48.735814]},"properties":{"title":"\u003Ca href=\u0022http:\/\/icndreux.communityforge.net\u0022\u003Eicndreux.communityforge.net\u003C\/a\u003E","description":"\u003Cimg src = \u0022http:\/\/icndreux.communityforge.net\/system\/files\/icn2.jpg\u0022 align=\u0022left\u0022 width=\u002230\u0022\u003EInitiatives Citoyennes Nouvelles\u003Cbr \/\u003EActive members: 3","marker-color":"#0571BC"}},{"type":"Feature","geometry":{"type":"Point","coordinates":[3.8850403,43.6062507]},"properties":{"title":"\u003Ca href=\u0022http:\/\/jeu.montpellier.communityforge.net\u0022\u003EJardin d\u0027\u00e9change Universel Montpellier\u003C\/a\u003E","description":"\u003Cimg src = \u0022http:\/\/jeu.montpellier.communityforge.net\/system\/files\/image jeu reduite.png\u0022 align=\u0022left\u0022 width=\u002230\u0022\u003ER\u00e9seau d\u0027\u00e9change de biens et de service autog\u00e9r\u00e9 et sans fronti\u00e8res\u003Cbr \/\u003EActive members: 15","marker-color":"#0571BC"}},{"type":"Feature","geometry":{"type":"Point","coordinates":[4.6592331,50.3206963]},"properties":{"title":"\u003Ca href=\u0022http:\/\/justesel-mettet.be\u0022\u003ELe JusteSEL de Mettet\u003C\/a\u003E","description":"\u003Cimg src = \u0022http:\/\/justesel-mettet.be\/system\/files\/LogoJusteSEL_Mettet_petit.jpg\u0022 align=\u0022left\u0022 width=\u002230\u0022\u003EOn a tous quelque chose \u00e0 partager\u003Cbr \/\u003EActive members: 17","marker-color":"#0571BC"}},{"type":"Feature","geometry":{"type":"Point","coordinates":[-0.9599304,45.9368257]},"properties":{"title":"\u003Ca href=\u0022http:\/\/laclefdesel.fr\u0022\u003ELa Clef de SEL, Rochefort\u003C\/a\u003E","description":"\u003Cimg src = \u0022http:\/\/laclefdesel.fr\/sites\/laclefdesel.fr\/files\/clef2sel.jpg\u0022 align=\u0022left\u0022 width=\u002230\u0022\u003EPour changer, \u00e9changeons... sans argent !\u003Cbr \/\u003EActive members: 21","marker-color":"#0571BC"}},{"type":"Feature","geometry":{"type":"Point","coordinates":[2.7261543,48.4179227]},"properties":{"title":"\u003Ca href=\u0022http:\/\/laficelle.communityforge.net\u0022\u003ELes bouts d\u0027ficelle\u003C\/a\u003E","description":"\u003Cimg src = \u0022http:\/\/laficelle.communityforge.net\/system\/files\/Lesboutsdficelle_r\u00e9duit.jpg\u0022 align=\u0022left\u0022 width=\u002230\u0022\u003ELe SEL d\u0027Avon, de Fontainebleau et des alentours\u003Cbr \/\u003EActive members: 16","marker-color":"#0571BC"}},{"type":"Feature","geometry":{"type":"Point","coordinates":[4.3871779,45.439695]},"properties":{"title":"\u003Ca href=\u0022http:\/\/laura-intersel.communityforge.net\u0022\u003Elaura-intersel\u003C\/a\u003E","description":"Loire.AUvergne.Rhone-Alpes (LAURA) - INTERSEL PRATIQUE\u003Cbr \/\u003EActive members: 4","marker-color":"#0571BC"}},{"type":"Feature","geometry":{"type":"Point","coordinates":[5,44]},"properties":{"title":"\u003Ca href=\u0022http:\/\/lebeausel.fr\u0022\u003ELe BeauSEL\u003C\/a\u003E","description":"\u003Cimg src = \u0022http:\/\/lebeausel.fr\/sites\/selesneux.be\/files\/sky_seldulac_logo.png\u0022 align=\u0022left\u0022 width=\u002230\u0022\u003ESEL de Carpentras\u003Cbr \/\u003EActive members: 18","marker-color":"#0571BC"}},{"type":"Feature","geometry":{"type":"Point","coordinates":[5.821642,44.315272]},"properties":{"title":"\u003Ca href=\u0022http:\/\/legaletdubuech.communityforge.net\u0022\u003ELe Galet du Buech\u003C\/a\u003E","description":"\u003Cimg src = \u0022http:\/\/legaletdubuech.communityforge.net\/system\/files\/logo.jpg\u0022 align=\u0022left\u0022 width=\u002230\u0022\u003ELe lien plut\u00f4t que le bien\u003Cbr \/\u003EActive members: 36","marker-color":"#0571BC"}},{"type":"Feature","geometry":{"type":"Point","coordinates":[0.0926971,48.4330732]},"properties":{"title":"\u003Ca href=\u0022http:\/\/les-courts-circuits.communityforge.net\u0022\u003EAlen\u0027Sel \u003C\/a\u003E","description":"\u003Cimg src = \u0022http:\/\/les-courts-circuits.communityforge.net\/system\/files\/logolescourtscircuitsBAT_1.png\u0022 align=\u0022left\u0022 width=\u002230\u0022\u003EPlateforme d\u2019\u00e9change de coups de mains, de biens et de savoir \u00e0 Alen\u00e7on et sa r\u00e9gion.\u003Cbr \/\u003EActive members: 29","marker-color":"#0571BC"}},{"type":"Feature","geometry":{"type":"Point","coordinates":[5.0166321,44.7252716]},"properties":{"title":"\u003Ca href=\u0022http:\/\/leseldecrest.org\u0022\u003Eleseldecrest.communityforge.net\u003C\/a\u003E","description":"\u003Cimg src = \u0022http:\/\/leseldecrest.org\/system\/files\/le-sel-de-crest.png\u0022 align=\u0022left\u0022 width=\u002230\u0022\u003Ele SEL de Crest et de ses environs.\u003Cbr \/\u003EActive members: 125","marker-color":"#0571BC"}},{"type":"Feature","geometry":{"type":"Point","coordinates":[-1.5696716,47.1906457]},"properties":{"title":"\u003Ca href=\u0022http:\/\/leselducoin.communityforge.net\u0022\u003Eleselducoin.communityforge.net\u003C\/a\u003E","description":"\u003Cimg src = \u0022http:\/\/leselducoin.communityforge.net\/system\/files\/LOGO le Sel Du Coin d\u00e9finitif.jpg\u0022 align=\u0022left\u0022 width=\u002230\u0022\u003ELe SEL du Coin n\u0027est jamais loin \u003Cbr \/\u003EActive members: 12","marker-color":"#0571BC"}},{"type":"Feature","geometry":{"type":"Point","coordinates":[1.4773178,43.3536434]},"properties":{"title":"\u003Ca href=\u0022http:\/\/lesfleursdepastel.communityforge.net\u0022\u003ESEL, Les Fleurs de Pastel \/ Auterive\u003C\/a\u003E","description":"\u003Cimg src = \u0022http:\/\/lesfleursdepastel.communityforge.net\/system\/files\/pastel.jpeg\u0022 align=\u0022left\u0022 width=\u002230\u0022\u003EPour Changer Echangeons \u003Cbr \/\u003EActive members: 8","marker-color":"#0571BC"}},{"type":"Feature","geometry":{"type":"Point","coordinates":[-71.652832,48.5643396]},"properties":{"title":"\u003Ca href=\u0022http:\/\/lespartagheures.communityforge.net\u0022\u003ELes Partag\u0027Heures\u003C\/a\u003E","description":"\u003Cimg src = \u0022http:\/\/lespartagheures.communityforge.net\/system\/files\/g3022.png\u0022 align=\u0022left\u0022 width=\u002230\u0022\u003ELe temps, c\u0027est bien plus que de l\u0027argent, surtout lorsqu\u0027on le partage\u003Cbr \/\u003EActive members: 26","marker-color":"#0571BC"}},{"type":"Feature","geometry":{"type":"Point","coordinates":[1.3430786,47.5839366]},"properties":{"title":"\u003Ca href=\u0022http:\/\/loireetselblois.communityforge.net\u0022\u003ELoire\u0026Sel de Blois\u003C\/a\u003E","description":"\u003Cimg src = \u0022http:\/\/loireetselblois.communityforge.net\/system\/files\/sel_personnag.jpg\u0022 align=\u0022left\u0022 width=\u002230\u0022\u003EMettez du sel dans votre vie : rejoignez-nous\u003Cbr \/\u003EActive members: 37","marker-color":"#0571BC"}},{"type":"Feature","geometry":{"type":"Point","coordinates":[4.6142578,50.7168954]},"properties":{"title":"\u003Ca href=\u0022http:\/\/macasel.be\u0022\u003EMacasel, SEL de Wavre\u003C\/a\u003E","description":"\u003Cimg src = \u0022http:\/\/macasel.be\/sites\/macasel.be\/files\/sky_seldulac_logo.jpg\u0022 align=\u0022left\u0022 width=\u002230\u0022\u003ES\u0027entraider entre voisins\u003Cbr \/\u003EActive members: 74","marker-color":"#0571BC"}},{"type":"Feature","geometry":{"type":"Point","coordinates":[7.2163868,47.8612037]},"properties":{"title":"\u003Ca href=\u0022http:\/\/mannasel.org\u0022\u003EMannaSEL\u003C\/a\u003E","description":"\u003Cimg src = \u0022http:\/\/mannasel.org\/system\/files\/logoMannasel3_0_1.jpg\u0022 align=\u0022left\u0022 width=\u002230\u0022\u003EDes liens plus que des biens\u003Cbr \/\u003EActive members: 8","marker-color":"#0571BC"}},{"type":"Feature","geometry":{"type":"Point","coordinates":[-16.5563965,28.3382301]},"properties":{"title":"\u003Ca href=\u0022http:\/\/manticore.communityforge.net\u0022\u003EBanco de Mant\u00edcoras\u003C\/a\u003E","description":"\u003Cimg src = \u0022http:\/\/manticore.communityforge.net\/system\/files\/logo-manticora-circular.png\u0022 align=\u0022left\u0022 width=\u002230\u0022\u003EMoneda interna del movimiento teatral Manticore\u003Cbr \/\u003EActive members: 1","marker-color":"#0571BC"}},{"type":"Feature","geometry":{"type":"Point","coordinates":[5.3816936000001,43.2981887]},"properties":{"title":"\u003Ca href=\u0022http:\/\/marsel.communityforge.net\u0022\u003EMarSEL \u003C\/a\u003E","description":"\u003Cimg src = \u0022http:\/\/marsel.communityforge.net\/system\/files\/smart-collaboration.jpg\u0022 align=\u0022left\u0022 width=\u002230\u0022\u003E \u003E un SEL de Marseille \u003Cbr \/\u003EActive members: 28","marker-color":"#0571BC"}},{"type":"Feature","geometry":{"type":"Point","coordinates":[28.223595321178,36.44838382744]},"properties":{"title":"\u003Ca href=\u0022http:\/\/melekounia.gr\u0022\u003E\u039c\u03b5\u03bb\u03b5\u03ba\u03bf\u03cd\u03bd\u03b9\u003C\/a\u003E","description":"\u0395\u03bb\u03ac\u03c4\u03b5 \u03bd\u03b1 \u03b1\u03bd\u03c4\u03b1\u03bb\u03bb\u03ac\u03be\u03bf\u03c5\u03bc\u03b5 \u03bc\u03b5 \u0022\u03bc\u03b5\u03bb\u03b5\u03ba\u03bf\u03cd\u03bd\u03b9\u03b1\u0022...\u003Cbr \/\u003EActive members: 10","marker-color":"#0571BC"}},{"type":"Feature","geometry":{"type":"Point","coordinates":[4.880731,45.764649]},"properties":{"title":"\u003Ca href=\u0022http:\/\/memo.communityforge.net\u0022\u003ESEL\/JEU : Les \u00e9changes sans argent\u003C\/a\u003E","description":"\u003Cimg src = \u0022http:\/\/memo.communityforge.net\/system\/files\/logo, \u00e9changes entre 5 bonhommes_0.jpg\u0022 align=\u0022left\u0022 width=\u002230\u0022\u003E\u00e9changer en Points-Minutes des biens ou services : \u00e7a change nos relations\u003Cbr \/\u003EActive members: 8","marker-color":"#0571BC"}},{"type":"Feature","geometry":{"type":"Point","coordinates":[4.952774,45.6610871]},"properties":{"title":"\u003Ca href=\u0022http:\/\/mionsel.org\u0022\u003EMionSel - Sel de Mions\u003C\/a\u003E","description":"\u003Cimg src = \u0022http:\/\/mionsel.org\/system\/files\/Mionsel.jpg\u0022 align=\u0022left\u0022 width=\u002230\u0022\u003EPRIVILEGIER LE LIEN PLUT\u00d4T QUE LE BIEN \u003Cbr \/\u003EActive members: 13","marker-color":"#0571BC"}},{"type":"Feature","geometry":{"type":"Point","coordinates":[5.1570511,50.3415166]},"properties":{"title":"\u003Ca href=\u0022http:\/\/monselhamois.be\u0022\u003Emonselhamois.be\u003C\/a\u003E","description":"\u003Cimg src = \u0022http:\/\/monselhamois.be\/sites\/monselhamois.be\/files\/sky_seldulac_logo.JPG\u0022 align=\u0022left\u0022 width=\u002230\u0022\u003EPasse-moi l\u0027SEL\u003Cbr \/\u003EActive members: 21","marker-color":"#0571BC"}},{"type":"Feature","geometry":{"type":"Point","coordinates":[4.3184853,45.5902575]},"properties":{"title":"\u003Ca href=\u0022http:\/\/montsdulyonnais.communityforge.net\u0022\u003ESEL des Monts du Lyonnais \u003C\/a\u003E","description":"\u003Cimg src = \u0022http:\/\/montsdulyonnais.communityforge.net\/system\/files\/logo Marie.jpg\u0022 align=\u0022left\u0022 width=\u002230\u0022\u003EJe partage, tu partages, il partage, nous partageons, ....\u003Cbr \/\u003EActive members: 33","marker-color":"#0571BC"}},{"type":"Feature","geometry":{"type":"Point","coordinates":[173.0009842,-41.1240452]},"properties":{"title":"\u003Ca href=\u0022http:\/\/motueka.cosh.net.nz\u0022\u003Emotueka.cosh.net.nz\u003C\/a\u003E","description":"\u003Cimg src = \u0022http:\/\/motueka.cosh.net.nz\/system\/files\/2014-03-26_1826.png\u0022 align=\u0022left\u0022 width=\u002230\u0022\u003ECommunity Share Motueka - Exchange with Hours or Talents\u003Cbr \/\u003EActive members: 6","marker-color":"#0571BC"}},{"type":"Feature","geometry":{"type":"Point","coordinates":[-1.547699,47.2232989]},"properties":{"title":"\u003Ca href=\u0022http:\/\/nantes-en-sel.communityforge.net\u0022\u003Enantes-en-sel\u003C\/a\u003E","description":"\u003Cimg src = \u0022http:\/\/nantes-en-sel.communityforge.net\/system\/files\/LogoNes2.jpg\u0022 align=\u0022left\u0022 width=\u002230\u0022\u003ELe lien avant le bien\u003Cbr \/\u003EActive members: 18","marker-color":"#0571BC"}},{"type":"Feature","geometry":{"type":"Point","coordinates":[3.1650925,46.9907918]},"properties":{"title":"\u003Ca href=\u0022http:\/\/niversel.fr\u0022\u003ENiver-SEL\u003C\/a\u003E","description":"\u003Cimg src = \u0022http:\/\/niversel.fr\/system\/files\/pers du Mq pge.jpg\u0022 align=\u0022left\u0022 width=\u002230\u0022\u003EL\u0027humain au coeur des \u00e9changes\u003Cbr \/\u003EActive members: 10","marker-color":"#0571BC"}},{"type":"Feature","geometry":{"type":"Point","coordinates":[5.4727793,50.2171175]},"properties":{"title":"\u003Ca href=\u0022http:\/\/ourthsel.be\u0022\u003Eourthsel.be\u003C\/a\u003E","description":"\u003Cimg src = \u0022http:\/\/ourthsel.be\/sites\/ourthsel.be\/files\/sky_seldulac_logo.jpg\u0022 align=\u0022left\u0022 width=\u002230\u0022\u003ELe SEL, c\u0027est choisir le lien au lieu des biens\u003Cbr \/\u003EActive members: 15","marker-color":"#0571BC"}},{"type":"Feature","geometry":{"type":"Point","coordinates":[-118.2568359,34.0640367]},"properties":{"title":"\u003Ca href=\u0022http:\/\/ourtimebank.communityforge.net\u0022\u003EOur Time Bank\u003C\/a\u003E","description":"\u003Cimg src = \u0022http:\/\/ourtimebank.communityforge.net\/system\/files\/Logo-All-People-OTB-Orange med web-.jpg\u0022 align=\u0022left\u0022 width=\u002230\u0022\u003EBuilding Community in Our Corner of Los Angeles\u003Cbr \/\u003EActive members: 22","marker-color":"#0571BC"}},{"type":"Feature","geometry":{"type":"Point","coordinates":[7.9080963,49.0227298]},"properties":{"title":"\u003Ca href=\u0022http:\/\/outre-foret.communityforge.net\u0022\u003Eoutre-foret.communityforge.net\u003C\/a\u003E","description":"\u003Cimg src = \u0022http:\/\/outre-foret.communityforge.net\/system\/files\/dessin logo SEL 2.jpg\u0022 align=\u0022left\u0022 width=\u002230\u0022\u003EPOUR CHANGER, ECHANGEONS !\u003Cbr \/\u003EActive members: 13","marker-color":"#0571BC"}},{"type":"Feature","geometry":{"type":"Point","coordinates":[4.5430358,50.1958462]},"properties":{"title":"\u003Ca href=\u0022http:\/\/phisel.be\u0022\u003Ephisel.be\u003C\/a\u003E","description":"\u003Cimg src = \u0022http:\/\/phisel.be\/sites\/phisel.be\/files\/sky_seldulac_logo.jpg\u0022 align=\u0022left\u0022 width=\u002230\u0022\u003EUn monde sans SEL est sans saveur ! \u003Cbr \/\u003EActive members: 27","marker-color":"#0571BC"}},{"type":"Feature","geometry":{"type":"Point","coordinates":[149.569,17.535021]},"properties":{"title":"\u003Ca href=\u0022http:\/\/poly.communityforge.net\u0022\u003EPoly SEL\u003C\/a\u003E","description":"\u003Cimg src = \u0022http:\/\/poly.communityforge.net\/sites\/poly.communityforge.net\/files\/unnamed.png\u0022 align=\u0022left\u0022 width=\u002230\u0022\u003E\u00c9changer et partager en Polyn\u00e9sie\u003Cbr \/\u003EActive members: 15","marker-color":"#0571BC"}},{"type":"Feature","geometry":{"type":"Point","coordinates":[7.0152855,46.8662944]},"properties":{"title":"\u003Ca href=\u0022http:\/\/potdseldubelmont.communityforge.net\u0022\u003ELe Pot d\u0027Sel du Belmont\u003C\/a\u003E","description":"\u003Cimg src = \u0022http:\/\/potdseldubelmont.communityforge.net\/system\/files\/SEL.jpg\u0022 align=\u0022left\u0022 width=\u002230\u0022\u003EUn peu de sel dans la vie !\u003Cbr \/\u003EActive members: 14","marker-color":"#0571BC"}},{"type":"Feature","geometry":{"type":"Point","coordinates":[2.303009,49.8964037]},"properties":{"title":"\u003Ca href=\u0022http:\/\/potesensel.communityforge.net\u0022\u003EPOTES EN SEL\u003C\/a\u003E","description":"\u003Cimg src = \u0022http:\/\/potesensel.communityforge.net\/system\/files\/fondha-bleu02.jpg\u0022 align=\u0022left\u0022 width=\u002230\u0022\u003ESyst\u00e8me d\u0027Echange Local Ami\u00e9nois\u003Cbr \/\u003EActive members: 9","marker-color":"#0571BC"}},{"type":"Feature","geometry":{"type":"Point","coordinates":[0.5174732,49.7410113]},"properties":{"title":"\u003Ca href=\u0022http:\/\/radiselvalmont.communityforge.net\u0022\u003ERadis\u0027SEL de la r\u00e9gion de Valmont 76\u003C\/a\u003E","description":"\u003Cimg src = \u0022http:\/\/radiselvalmont.communityforge.net\/system\/files\/logo_r_0.jpg\u0022 align=\u0022left\u0022 width=\u002230\u0022\u003EProfitons de nos savoir-faire !\u003Cbr \/\u003EActive members: 32","marker-color":"#0571BC"}},{"type":"Feature","geometry":{"type":"Point","coordinates":[3.0514526,50.6609965]},"properties":{"title":"\u003Ca href=\u0022http:\/\/ratintout.org\u0022\u003ERatintout.org\u003C\/a\u003E","description":"\u003Cimg src = \u0022http:\/\/ratintout.org\/system\/files\/ratintout_logo.png\u0022 align=\u0022left\u0022 width=\u002230\u0022\u003ERatintout - le SEL andr\u00e9sien\u003Cbr \/\u003EActive members: 18","marker-color":"#0571BC"}},{"type":"Feature","geometry":{"type":"Point","coordinates":[-2.7960205078125,54.0432637943]},"properties":{"title":"\u003Ca href=\u0022http:\/\/realmexchange.co.uk\u0022\u003EThe Realm Exchange\u003C\/a\u003E","description":"\u003Cimg src = \u0022http:\/\/realmexchange.co.uk\/sites\/realmexchange.co.uk\/files\/sky_seldulac_logo.jpg\u0022 align=\u0022left\u0022 width=\u002230\u0022\u003EThe Flexible Online Trading System for Lancaster and Morecambe backed by Gold \u003Cbr \/\u003EActive members: 1","marker-color":"#0571BC"}},{"type":"Feature","geometry":{"type":"Point","coordinates":[5.1869202,45.1781648]},"properties":{"title":"\u003Ca href=\u0022http:\/\/reseau-antonin.fr\u0022\u003ER\u00e9seau Antonin \u003C\/a\u003E","description":"\u003Cimg src = \u0022http:\/\/reseau-antonin.fr\/system\/files\/sa village vu de salle fete.jpg\u0022 align=\u0022left\u0022 width=\u002230\u0022\u003ECoop\u00e9rer, partager des biens ou des services, \u00e0 St-Antoine-l\u0027abbaye et alentours\u003Cbr \/\u003EActive members: 8","marker-color":"#0571BC"}},{"type":"Feature","geometry":{"type":"Point","coordinates":[-4.484288,48.397804]},"properties":{"title":"\u003Ca href=\u0022http:\/\/sel2mers.communityforge.net\u0022\u003Esel2mers.communityforge.net\u003C\/a\u003E","description":"\u003Cimg src = \u0022http:\/\/sel2mers.communityforge.net\/system\/files\/16472929_1478907942150071_6019757738452807669_n.jpg\u0022 align=\u0022left\u0022 width=\u002230\u0022\u003Eun r\u00e9seau d\u0027\u00e9change de services,de biens,de savoir-faire SANS ARGENT !\u003Cbr \/\u003EActive members: 2","marker-color":"#0571BC"}},{"type":"Feature","geometry":{"type":"Point","coordinates":[3.874054,48.0229983]},"properties":{"title":"\u003Ca href=\u0022http:\/\/sel99.fr\u0022\u003ESEL99\u003C\/a\u003E","description":"\u003Cimg src = \u0022http:\/\/sel99.fr\/system\/files\/logo copie.png\u0022 align=\u0022left\u0022 width=\u002230\u0022\u003EC\u0027est CHOUETTE le S.E.L....!\u003Cbr \/\u003EActive members: 19","marker-color":"#0571BC"}},{"type":"Feature","geometry":{"type":"Point","coordinates":[2.3254967,48.9378934]},"properties":{"title":"\u003Ca href=\u0022http:\/\/seladonsvlg.communityforge.net\u0022\u003ESELadons Villeneuve la Garenne\u003C\/a\u003E","description":"\u003Cimg src = \u0022http:\/\/seladonsvlg.communityforge.net\/system\/files\/logo.png\u0022 align=\u0022left\u0022 width=\u002230\u0022\u003EEchanges de services, de biens et de savoirs\u003Cbr \/\u003EActive members: 4","marker-color":"#0571BC"}},{"type":"Feature","geometry":{"type":"Point","coordinates":[1.501719,48.800542]},"properties":{"title":"\u003Ca href=\u0022http:\/\/selalternative.communityforge.net\u0022\u003ESel\u0027Alternative\u003C\/a\u003E","description":"\u003Cimg src = \u0022http:\/\/selalternative.communityforge.net\/system\/files\/Logo-Alternative.jpg\u0022 align=\u0022left\u0022 width=\u002230\u0022\u003EL\u0027espace des alternatives et de l\u0027entraide\u003Cbr \/\u003EActive members: 13","marker-color":"#0571BC"}},{"type":"Feature","geometry":{"type":"Point","coordinates":[5.312233,50.5472537]},"properties":{"title":"\u003Ca href=\u0022http:\/\/sel-amay.communityforge.net\u0022\u003ESEL d\u0027Amay\u003C\/a\u003E","description":"\u003Cimg src = \u0022http:\/\/sel-amay.communityforge.net\/system\/files\/Amayentransition.jpg\u0022 align=\u0022left\u0022 width=\u002230\u0022\u003ELa convivialit\u00e9 \u00e0 port\u00e9e de main\u003Cbr \/\u003EActive members: 30","marker-color":"#0571BC"}},{"type":"Feature","geometry":{"type":"Point","coordinates":[-0.53113847224267,47.471924965325]},"properties":{"title":"\u003Ca href=\u0022http:\/\/selangevin.fr\u0022\u003ELe SEL Angevin\u003C\/a\u003E","description":"\u003Cimg src = \u0022http:\/\/selangevin.fr\/system\/files\/SelAngevin.png\u0022 align=\u0022left\u0022 width=\u002230\u0022\u003EPour changer \u00e9changeons\u003Cbr \/\u003EActive members: 36","marker-color":"#0571BC"}},{"type":"Feature","geometry":{"type":"Point","coordinates":[4.7505569,49.7383488]},"properties":{"title":"\u003Ca href=\u0022http:\/\/selarden.communityforge.net\u0022\u003Eselarden.communityforge.net\u003C\/a\u003E","description":"Privil\u00e9gier le lien plut\u00f4t que le bien\u003Cbr \/\u003EActive members: 20","marker-color":"#0571BC"}},{"type":"Feature","geometry":{"type":"Point","coordinates":[5.808612,50.406843]},"properties":{"title":"\u003Ca href=\u0022http:\/\/selardenne.be\u0022\u003ESel\u0027Ardenne\u003C\/a\u003E","description":"\u003Cimg src = \u0022http:\/\/selardenne.be\/system\/files\/Sel-ardennejpg.jpg\u0022 align=\u0022left\u0022 width=\u002230\u0022\u003EPour changer..., Echangeons !\u003Cbr \/\u003EActive members: 18","marker-color":"#0571BC"}},{"type":"Feature","geometry":{"type":"Point","coordinates":[2.4999046,48.9414453]},"properties":{"title":"\u003Ca href=\u0022http:\/\/selaulnay.communityforge.net\u0022\u003E\u00c9changeons Mieux Ensemble\u003C\/a\u003E","description":"\u003Cimg src = \u0022http:\/\/selaulnay.communityforge.net\/system\/files\/logo2_petit.png\u0022 align=\u0022left\u0022 width=\u002230\u0022\u003ELe SEL d\u0027Aulnay-sous-Bois\u003Cbr \/\u003EActive members: 27","marker-color":"#0571BC"}},{"type":"Feature","geometry":{"type":"Point","coordinates":[2.6010132,48.563658]},"properties":{"title":"\u003Ca href=\u0022http:\/\/selavenir.communityforge.net\u0022\u003E SEL\u0027Avenir\u003C\/a\u003E","description":"\u003Cimg src = \u0022http:\/\/selavenir.communityforge.net\/system\/files\/logo sel\u0027avenir.png\u0022 align=\u0022left\u0022 width=\u002230\u0022\u003ESyst\u00e8me d\u0027Echange Local de Cesson, S\u00e9nart et les villes avoisinantes 77\u003Cbr \/\u003EActive members: 11","marker-color":"#0571BC"}},{"type":"Feature","geometry":{"type":"Point","coordinates":[1.904068,47.9006929]},"properties":{"title":"\u003Ca href=\u0022http:\/\/selavie.communityforge.net\u0022\u003ESel \u00e0 vie\u003C\/a\u003E","description":"\u003Cimg src = \u0022http:\/\/selavie.communityforge.net\/system\/files\/sel.jpg\u0022 align=\u0022left\u0022 width=\u002230\u0022\u003ESyst\u00e8me d\u2019\u00e9changes local d\u2019Orl\u00e9ans Madeleine\u003Cbr \/\u003EActive members: 12","marker-color":"#0571BC"}},{"type":"Feature","geometry":{"type":"Point","coordinates":[5.500031,49.6556272]},"properties":{"title":"\u003Ca href=\u0022http:\/\/selaviegaume.be\u0022\u003ESELavie Gaume\u003C\/a\u003E","description":"\u003Cimg src = \u0022http:\/\/selaviegaume.be\/sites\/selaviegaume.be\/files\/sky_seldulac_logo.jpg\u0022 align=\u0022left\u0022 width=\u002230\u0022\u003ESyst\u00e8me d\u2019Echange Local en Gaume\u003Cbr \/\u003EActive members: 13","marker-color":"#0571BC"}},{"type":"Feature","geometry":{"type":"Point","coordinates":[5.67584,50.47318]},"properties":{"title":"\u003Ca href=\u0022http:\/\/sel-aywaille.org\u0022\u003ELe Sel-Aywaille\u003C\/a\u003E","description":"\u003Cimg src = \u0022http:\/\/sel-aywaille.org\/system\/files\/Logo-Final.jpg\u0022 align=\u0022left\u0022 width=\u002230\u0022\u003EPlateforme d\u0027Echange: Pour celles et ceux chez qui l\u0027entraide est une volont\u00e9 ind\u00e9niable... \u003Cbr \/\u003EActive members: 4","marker-color":"#0571BC"}},{"type":"Feature","geometry":{"type":"Point","coordinates":[5.7249069,50.7123303]},"properties":{"title":"\u003Ca href=\u0022http:\/\/sel-bassemeuse.communityforge.net\u0022\u003ESel Basse Meuse\u003C\/a\u003E","description":"\u003Cimg src = \u0022http:\/\/sel-bassemeuse.communityforge.net\/system\/files\/1798154_314948445321434_1724267097860601323_n.jpg\u0022 align=\u0022left\u0022 width=\u002230\u0022\u003ELe bonheur est dans l\u0027\u00e9change !\u003Cbr \/\u003EActive members: 3","marker-color":"#0571BC"}},{"type":"Feature","geometry":{"type":"Point","coordinates":[4.7419739,45.9893289]},"properties":{"title":"\u003Ca href=\u0022http:\/\/selcalade.communityforge.net\u0022\u003Eselcalade\u003C\/a\u003E","description":"\u003Cimg src = \u0022http:\/\/selcalade.communityforge.net\/system\/files\/Raisins dessin.jpg\u0022 align=\u0022left\u0022 width=\u002230\u0022\u003EDes \u00e9changes pour se rencontrer, des rencontres pour \u00e9changer\u003Cbr \/\u003EActive members: 26","marker-color":"#0571BC"}},{"type":"Feature","geometry":{"type":"Point","coordinates":[4.7455788,45.7108543]},"properties":{"title":"\u003Ca href=\u0022http:\/\/selchaponost.fr\u0022\u003ESEL \u0027AVIE\u003C\/a\u003E","description":"\u003Cimg src = \u0022http:\/\/selchaponost.fr\/system\/files\/avatar _1.png\u0022 align=\u0022left\u0022 width=\u002230\u0022\u003E\u003Cbr \/\u003EActive members: 22","marker-color":"#0571BC"}},{"type":"Feature","geometry":{"type":"Point","coordinates":[5.3448617,49.9123264]},"properties":{"title":"\u003Ca href=\u0022http:\/\/sel-chevigny.be\u0022\u003Esel-chevigny.be\u003C\/a\u003E","description":"\u003Cimg src = \u0022http:\/\/sel-chevigny.be\/system\/files\/Logo-Chevigny.jpg\u0022 align=\u0022left\u0022 width=\u002230\u0022\u003EOn a tous quelque chose \u00e0 partager\u003Cbr \/\u003EActive members: 1","marker-color":"#0571BC"}},{"type":"Feature","geometry":{"type":"Point","coordinates":[-1.4591217,43.5403359]},"properties":{"title":"\u003Ca href=\u0022http:\/\/selclairdelune.communityforge.net\u0022\u003Eselclairdelune.communityforge.net\u003C\/a\u003E","description":"\u003Cimg src = \u0022http:\/\/selclairdelune.communityforge.net\/system\/files\/like-the-wind_by_webby85.jpg\u0022 align=\u0022left\u0022 width=\u002230\u0022\u003EMettez du S.E.L dans votre vie \u003Cbr \/\u003EActive members: 35","marker-color":"#0571BC"}},{"type":"Feature","geometry":{"type":"Point","coordinates":[4.659274,46.434135]},"properties":{"title":"\u003Ca href=\u0022http:\/\/selclunisois.communityforge.net\u0022\u003ESelclunisois\u003C\/a\u003E","description":"\u003Cimg src = \u0022http:\/\/selclunisois.communityforge.net\/sites\/selclunisois.communityforge.net\/files\/sky_seldulac_logo.JPG\u0022 align=\u0022left\u0022 width=\u002230\u0022\u003ELe SEL ne s\u0027use que si l\u0027on ne s\u0027en sert pas ......\u003Cbr \/\u003EActive members: 71","marker-color":"#0571BC"}},{"type":"Feature","geometry":{"type":"Point","coordinates":[3.2349586,48.1578412]},"properties":{"title":"\u003Ca href=\u0022http:\/\/selcollemiers.communityforge.net\u0022\u003ELe SEL de Collemiers\u003C\/a\u003E","description":"\u003Cimg src = \u0022http:\/\/selcollemiers.communityforge.net\/system\/files\/logo.png\u0022 align=\u0022left\u0022 width=\u002230\u0022\u003EPour changer, \u00e9changeons\u003Cbr \/\u003EActive members: 15","marker-color":"#0571BC"}},{"type":"Feature","geometry":{"type":"Point","coordinates":[4.835659,45.764043]},"properties":{"title":"\u003Ca href=\u0022http:\/\/selconaissances.communityforge.net\u0022\u003ESel Co-Naissances\u003C\/a\u003E","description":"\u003Cimg src = \u0022http:\/\/selconaissances.communityforge.net\/system\/files\/Co-naissances.jpg\u0022 align=\u0022left\u0022 width=\u002230\u0022\u003EFaire \u00e9merger les talents, les projets, et faciliter leur concr\u00e9tisation\u003Cbr \/\u003EActive members: 2","marker-color":"#0571BC"}},{"type":"Feature","geometry":{"type":"Point","coordinates":[4.6039581,50.5980579]},"properties":{"title":"\u003Ca href=\u0022http:\/\/selcoupdepouce.be\u0022\u003ESEL coup de pouce\u003C\/a\u003E","description":"\u003Cimg src = \u0022http:\/\/selcoupdepouce.be\/sites\/selcoupdepouce.be\/files\/logo.jpg\u0022 align=\u0022left\u0022 width=\u002230\u0022\u003ESyst\u00e8me d\u0027Echange Local - \u00e9changer, c\u0027est changer !\u003Cbr \/\u003EActive members: 169","marker-color":"#0571BC"}},{"type":"Feature","geometry":{"type":"Point","coordinates":[5.0386047,45.3289787]},"properties":{"title":"\u003Ca href=\u0022http:\/\/seldebeaurepaire.fr\u0022\u003Eseldebeaurepaire.fr\u003C\/a\u003E","description":"\u003Cimg src = \u0022http:\/\/seldebeaurepaire.fr\/system\/files\/ampoule.jpg\u0022 align=\u0022left\u0022 width=\u002230\u0022\u003ECertains, individuellement, iront plus vite, mais Ensemble nous irons plus loin...!\u003Cbr \/\u003EActive members: 32","marker-color":"#0571BC"}},{"type":"Feature","geometry":{"type":"Point","coordinates":[2.4334288,50.9685355]},"properties":{"title":"\u003Ca href=\u0022http:\/\/seldebergues.communityforge.net\u0022\u003ELe p\u00e2te \u00e0 sel\u003C\/a\u003E","description":"Echanger... et changer !\u003Cbr \/\u003EActive members: 17","marker-color":"#0571BC"}},{"type":"Feature","geometry":{"type":"Point","coordinates":[2.398782,47.081012]},"properties":{"title":"\u003Ca href=\u0022http:\/\/seldebourges.communityforge.net\u0022\u003ESyst\u00e8me d\u0027Echange Local de Bourges\u003C\/a\u003E","description":"\u003Cimg src = \u0022http:\/\/seldebourges.communityforge.net\/system\/files\/Logo_Sel_Original.png\u0022 align=\u0022left\u0022 width=\u002230\u0022\u003ESite de \u0022Pas seul en Sel\u0022\u003Cbr \/\u003EActive members: 6","marker-color":"#0571BC"}},{"type":"Feature","geometry":{"type":"Point","coordinates":[5.27212,45.597108]},"properties":{"title":"\u003Ca href=\u0022http:\/\/seldebourgoinjallieu.fr\u0022\u003ESEL de Bourgoin Jallieu\u003C\/a\u003E","description":"\u003Cimg src = \u0022http:\/\/seldebourgoinjallieu.fr\/sites\/seldebourgoinjallieu.fr\/files\/sky_seldulac_logo.jpg\u0022 align=\u0022left\u0022 width=\u002230\u0022\u003EMettez un peu de SEL dans votre vie ...\u003Cbr \/\u003EActive members: 44","marker-color":"#0571BC"}},{"type":"Feature","geometry":{"type":"Point","coordinates":[6.6441536,44.9008757]},"properties":{"title":"\u003Ca href=\u0022http:\/\/seldebriancon.communityforge.net\u0022\u003ESEL Brian\u00e7onnais\u003C\/a\u003E","description":"\u003Cimg src = \u0022http:\/\/seldebriancon.communityforge.net\/system\/files\/SELB_Logo_0.jpg\u0022 align=\u0022left\u0022 width=\u002230\u0022\u003ESyst\u00e8me d\u0027Echange Local de Brian\u00e7on - Agir Ensemble Ici et Maintenant\u003Cbr \/\u003EActive members: 13","marker-color":"#0571BC"}},{"type":"Feature","geometry":{"type":"Point","coordinates":[1.2249756,43.2922008]},"properties":{"title":"\u003Ca href=\u0022http:\/\/seldecarbonne.fr\u0022\u003ESEL de Carbonne\u003C\/a\u003E","description":"\u003Cbr \/\u003EActive members: 26","marker-color":"#0571BC"}},{"type":"Feature","geometry":{"type":"Point","coordinates":[0.380774,49.755601]},"properties":{"title":"\u003Ca href=\u0022http:\/\/sel-de-caux.fr\u0022\u003ESel De Caux\u003C\/a\u003E","description":"\u003Cimg src = \u0022http:\/\/sel-de-caux.fr\/sites\/sel-de-caux.fr\/files\/LOGO-SEL-PUZZLE-04A.png\u0022 align=\u0022left\u0022 width=\u002230\u0022\u003EPour changer, \u00e9changeons\u003Cbr \/\u003EActive members: 15","marker-color":"#0571BC"}},{"type":"Feature","geometry":{"type":"Point","coordinates":[2.083165,49.029829]},"properties":{"title":"\u003Ca href=\u0022http:\/\/seldecergypontoise.fr\u0022\u003ESEL Cergy-Pontoise\u003C\/a\u003E","description":"\u003Cimg src = \u0022http:\/\/seldecergypontoise.fr\/sites\/seldecergypontoise.fr\/files\/logo_sel_de_cergy_couleur_0.jpg\u0022 align=\u0022left\u0022 width=\u002230\u0022\u003E\u003Cbr \/\u003EActive members: 175","marker-color":"#0571BC"}},{"type":"Feature","geometry":{"type":"Point","coordinates":[3.4038734,49.0465323]},"properties":{"title":"\u003Ca href=\u0022http:\/\/seldechateau-thierry.fr\u0022\u003ELe Ch\u00e2teau de SEL\u003C\/a\u003E","description":"\u003Cimg src = \u0022http:\/\/seldechateau-thierry.fr\/system\/files\/lgo Chateau de Sel BD2.jpg\u0022 align=\u0022left\u0022 width=\u002230\u0022\u003EPour changer, \u00e9changeons!\u003Cbr \/\u003EActive members: 35","marker-color":"#0571BC"}},{"type":"Feature","geometry":{"type":"Point","coordinates":[-1.7612457,48.5557051]},"properties":{"title":"\u003Ca href=\u0022http:\/\/sel.de.dol.fr\u0022\u003ESEL de la Vall\u00e9e du Guyoult\u003C\/a\u003E","description":"\u003Cimg src = \u0022http:\/\/sel.de.dol.fr\/system\/files\/logo.png\u0022 align=\u0022left\u0022 width=\u002230\u0022\u003EEn SEL ensemble\u003Cbr \/\u003EActive members: 18","marker-color":"#0571BC"}},{"type":"Feature","geometry":{"type":"Point","coordinates":[5.7245636,45.1888124]},"properties":{"title":"\u003Ca href=\u0022http:\/\/seldegrenoble.communityforge.net\u0022\u003ESEL de Grenoble\u003C\/a\u003E","description":"\u003Cimg src = \u0022http:\/\/seldegrenoble.communityforge.net\/system\/files\/images_0.jpg\u0022 align=\u0022left\u0022 width=\u002230\u0022\u003EL\u0027\u00e9change solidaire sans argent pour faire prosp\u00e9rer les liens\u003Cbr \/\u003EActive members: 39","marker-color":"#0571BC"}},{"type":"Feature","geometry":{"type":"Point","coordinates":[2.0815659,49.000943]},"properties":{"title":"\u003Ca href=\u0022http:\/\/seldelaconfluence.fr\u0022\u003ESel de la Confluence\u003C\/a\u003E","description":"\u003Cimg src = \u0022http:\/\/seldelaconfluence.fr\/system\/files\/barre_a_roue.png\u0022 align=\u0022left\u0022 width=\u002230\u0022\u003EFavoriser le lien plut\u00f4t que le bien \u003Cbr \/\u003EActive members: 8","marker-color":"#0571BC"}},{"type":"Feature","geometry":{"type":"Point","coordinates":[5.2789307,45.3675844]},"properties":{"title":"\u003Ca href=\u0022http:\/\/seldelacotesaintandre.communityforge.net\u0022\u003ESEL de La C\u00f4te Saint-Andr\u00e9 \u003C\/a\u003E","description":"\u003Cimg src = \u0022http:\/\/seldelacotesaintandre.communityforge.net\/system\/files\/griottes_4.png\u0022 align=\u0022left\u0022 width=\u002230\u0022\u003EPour changer, \u00e9changeons !\u003Cbr \/\u003EActive members: 6","marker-color":"#0571BC"}},{"type":"Feature","geometry":{"type":"Point","coordinates":[2.7392864,48.856527]},"properties":{"title":"\u003Ca href=\u0022http:\/\/seldelagondoire.org\u0022\u003ESEL de la Gondoire\u003C\/a\u003E","description":"\u003Cimg src = \u0022http:\/\/seldelagondoire.org\/system\/files\/Logo_0.jpg\u0022 align=\u0022left\u0022 width=\u002230\u0022\u003EVenez mettre votre grain de sel ... \u00e9changez!\u003Cbr \/\u003EActive members: 18","marker-color":"#0571BC"}},{"type":"Feature","geometry":{"type":"Point","coordinates":[6.822778,46.7903052]},"properties":{"title":"\u003Ca href=\u0022http:\/\/seldelamoliere.ch\u0022\u003ESyst\u00e8me d\u0027Echange Local de la Moli\u00e8re\u003C\/a\u003E","description":"\u003Cimg src = \u0022http:\/\/seldelamoliere.ch\/sites\/seldelamoliere.ch\/files\/SEL sans texte.gif\u0022 align=\u0022left\u0022 width=\u002230\u0022\u003EPour \u00e9changer dans la Broye\u003Cbr \/\u003EActive members: 22","marker-color":"#0571BC"}},{"type":"Feature","geometry":{"type":"Point","coordinates":[7.3436737,47.3659202]},"properties":{"title":"\u003Ca href=\u0022http:\/\/sel-delemont.ch\u0022\u003ESel R\u00e9gion Del\u00e9mont\u003C\/a\u003E","description":"\u003Cimg src = \u0022http:\/\/sel-delemont.ch\/system\/files\/logo_sel_region_delemont_0.jpg\u0022 align=\u0022left\u0022 width=\u002230\u0022\u003EDonner, recevoir, se rencontrer, partager !\u003Cbr \/\u003EActive members: 33","marker-color":"#0571BC"}},{"type":"Feature","geometry":{"type":"Point","coordinates":[0.6811523,47.3983492]},"properties":{"title":"\u003Ca href=\u0022http:\/\/seldeloire.org\u0022\u003ESel de Loire\u003C\/a\u003E","description":"\u003Cimg src = \u0022http:\/\/seldeloire.org\/system\/files\/bandeau_loire_0.jpg\u0022 align=\u0022left\u0022 width=\u002230\u0022\u003ESyst\u00e8me d\u0027Echange Local\u003Cbr \/\u003EActive members: 46","marker-color":"#0571BC"}},{"type":"Feature","geometry":{"type":"Point","coordinates":[-0.3534508,49.3173455]},"properties":{"title":"\u003Ca href=\u0022http:\/\/seldenacre.communityforge.net\u0022\u003Eseldenacre.communityforge.net\u003C\/a\u003E","description":"\u003Cimg src = \u0022http:\/\/seldenacre.communityforge.net\/system\/files\/logo.jpg\u0022 align=\u0022left\u0022 width=\u002230\u0022\u003ESel Coeur de Nacre, r\u00e9seau d\u0027entraide \u00e0 Luc sur mer\u003Cbr \/\u003EActive members: 18","marker-color":"#0571BC"}},{"type":"Feature","geometry":{"type":"Point","coordinates":[2.3431778,48.8557928]},"properties":{"title":"\u003Ca href=\u0022http:\/\/seldepaname.communityforge.net\u0022\u003ESEL de Paname\u003C\/a\u003E","description":"\u003Cimg src = \u0022http:\/\/seldepaname.communityforge.net\/system\/files\/logoSELdePaname_ombre2 b.jpg\u0022 align=\u0022left\u0022 width=\u002230\u0022\u003ESans la g\u00e9n\u00e9rosit\u00e9 d\u0027\u00e9changer, il n\u0027est point de lien de valeur\u003Cbr \/\u003EActive members: 33","marker-color":"#0571BC"}},{"type":"Feature","geometry":{"type":"Point","coordinates":[4.0292358,49.2660123]},"properties":{"title":"\u003Ca href=\u0022http:\/\/seldereims.asso.st\u0022\u003ESEL.Reims\u003C\/a\u003E","description":"\u003Cimg src = \u0022http:\/\/seldereims.asso.st\/system\/files\/illustrationBase35p.jpg\u0022 align=\u0022left\u0022 width=\u002230\u0022\u003EPour changer... \u00e9changeons sans argent!\u003Cbr \/\u003EActive members: 73","marker-color":"#0571BC"}},{"type":"Feature","geometry":{"type":"Point","coordinates":[0.5142975,49.355992]},"properties":{"title":"\u003Ca href=\u0022http:\/\/selderisle.fr\u0022\u003ESel de Risle\u003C\/a\u003E","description":"\u003Cimg src = \u0022http:\/\/selderisle.fr\/sites\/selderisle.fr\/files\/sel3_1_0.jpg\u0022 align=\u0022left\u0022 width=\u002230\u0022\u003EVotre slogan ici\u003Cbr \/\u003EActive members: 25","marker-color":"#0571BC"}},{"type":"Feature","geometry":{"type":"Point","coordinates":[2.575986,44.349389]},"properties":{"title":"\u003Ca href=\u0022http:\/\/selderodez.communityforge.net\u0022\u003ESEL de Rodez\u003C\/a\u003E","description":"\u003Cimg src = \u0022http:\/\/selderodez.communityforge.net\/system\/files\/banniere sel de rodez.png\u0022 align=\u0022left\u0022 width=\u002230\u0022\u003ESyst\u00e8me d\u0027Echange Local du ruth\u00e9nois\u003Cbr \/\u003EActive members: 8","marker-color":"#0571BC"}},{"type":"Feature","geometry":{"type":"Point","coordinates":[2.7958488,48.3998046]},"properties":{"title":"\u003Ca href=\u0022http:\/\/seldesecluses.communityforge.net\u0022\u003ESEL des Ecluses\u003C\/a\u003E","description":"\u003Cimg src = \u0022http:\/\/seldesecluses.communityforge.net\/system\/files\/LOGO_SEL.jpg\u0022 align=\u0022left\u0022 width=\u002230\u0022\u003ELa rencontre de l\u2019autre vaut tout l\u2019or du monde\u003Cbr \/\u003EActive members: 59","marker-color":"#0571BC"}},{"type":"Feature","geometry":{"type":"Point","coordinates":[1.1,49.44]},"properties":{"title":"\u003Ca href=\u0022http:\/\/seldeseine.eu\u0022\u003ESEL de Seine\u003C\/a\u003E","description":"\u003Cimg src = \u0022http:\/\/seldeseine.eu\/sites\/seldeseine.eu\/files\/LogoSeldeSeine5_0.png\u0022 align=\u0022left\u0022 width=\u002230\u0022\u003EPour changer, \u00e9changeons ! Car le lien est plus important que le bien.\u003Cbr \/\u003EActive members: 52","marker-color":"#0571BC"}},{"type":"Feature","geometry":{"type":"Point","coordinates":[3.7051392,43.4190139]},"properties":{"title":"\u003Ca href=\u0022http:\/\/seldesete-thau.communityforge.net\u0022\u003Eseldesete-thau.com\u003C\/a\u003E","description":"\u003Cimg src = \u0022http:\/\/seldesete-thau.communityforge.net\/system\/files\/logo.jpg\u0022 align=\u0022left\u0022 width=\u002230\u0022\u003ESoyons s\u00e9lidaires \u00e0 S\u00e8te et dans le Bassin de Thau\u003Cbr \/\u003EActive members: 8","marker-color":"#0571BC"}},{"type":"Feature","geometry":{"type":"Point","coordinates":[2.2127151,48.8213325]},"properties":{"title":"\u003Ca href=\u0022http:\/\/seldesevre.org\u0022\u003Eseldesevre.org\u003C\/a\u003E","description":"\u003Cimg src = \u0022http:\/\/seldesevre.org\/system\/files\/CSCJaunaisBlordiere_quadri.jpg\u0022 align=\u0022left\u0022 width=\u002230\u0022\u003E\u0022Il faut remplacer l\u0027exploit solitaire par une r\u00e9ussite solidaire\u0022 Albert Jacquard\u003Cbr \/\u003EActive members: 6","marker-color":"#0571BC"}},{"type":"Feature","geometry":{"type":"Point","coordinates":[5.40802,45.8087004]},"properties":{"title":"\u003Ca href=\u0022http:\/\/seldeslauzes.communityforge.net\u0022\u003ESEL des Lauzes\u003C\/a\u003E","description":"\u003Cimg src = \u0022http:\/\/seldeslauzes.communityforge.net\/system\/files\/Lauzes_0.jpg\u0022 align=\u0022left\u0022 width=\u002230\u0022\u003EOsez la Lauze\u003Cbr \/\u003EActive members: 57","marker-color":"#0571BC"}},{"type":"Feature","geometry":{"type":"Point","coordinates":[6.9303131,46.9907918]},"properties":{"title":"\u003Ca href=\u0022http:\/\/seldesrives.ch\u0022\u003Esel des rives\u003C\/a\u003E","description":"\u003Cimg src = \u0022http:\/\/seldesrives.ch\/sites\/seldesrives.ch\/files\/sky_seldulac_logo.jpg\u0022 align=\u0022left\u0022 width=\u002230\u0022\u003EPour changer \u00e9changeons\u003Cbr \/\u003EActive members: 28","marker-color":"#0571BC"}},{"type":"Feature","geometry":{"type":"Point","coordinates":[2.3874664,48.7607154]},"properties":{"title":"\u003Ca href=\u0022http:\/\/seldethiais94.communityforge.net\u0022\u003ESeldethiais94\u003C\/a\u003E","description":"\u003Cimg src = \u0022http:\/\/seldethiais94.communityforge.net\/system\/files\/logo SEL de Thiais_0.jpg\u0022 align=\u0022left\u0022 width=\u002230\u0022\u003EConvivialit\u00e9 et Solidarit\u00e9!\u003Cbr \/\u003EActive members: 18","marker-color":"#0571BC"}},{"type":"Feature","geometry":{"type":"Point","coordinates":[2.137528,48.7996272]},"properties":{"title":"\u003Ca href=\u0022http:\/\/seldeversailles.communityforge.net\u0022\u003ESEL de Versailles\u003C\/a\u003E","description":"\u003Cimg src = \u0022http:\/\/seldeversailles.communityforge.net\/system\/files\/logoSEL_0.jpg\u0022 align=\u0022left\u0022 width=\u002230\u0022\u003EPour changer \u00e9changeons car le lien est plus important que le bien\u003Cbr \/\u003EActive members: 35","marker-color":"#0571BC"}},{"type":"Feature","geometry":{"type":"Point","coordinates":[2.3575974,48.7919378]},"properties":{"title":"\u003Ca href=\u0022http:\/\/seldevillejuif.communityforge.net\u0022\u003ESel de Villejuif\u003C\/a\u003E","description":"\u003Cimg src = \u0022http:\/\/seldevillejuif.communityforge.net\/system\/files\/Svilejuif_0.jpg\u0022 align=\u0022left\u0022 width=\u002230\u0022\u003ELe SEL qui p\u00e9tille\u003Cbr \/\u003EActive members: 27","marker-color":"#0571BC"}},{"type":"Feature","geometry":{"type":"Point","coordinates":[0.804935,44.397248]},"properties":{"title":"\u003Ca href=\u0022http:\/\/seldicietdailleurs.communityforge.net\u0022\u003ESel d\u0027Ici et d\u0027Ailleurs\u003C\/a\u003E","description":"Mettez ici votre slogan\u003Cbr \/\u003EActive members: 2","marker-color":"#0571BC"}},{"type":"Feature","geometry":{"type":"Point","coordinates":[-1.6620255,48.2731395]},"properties":{"title":"\u003Ca href=\u0022http:\/\/seldille.org\u0022\u003ESEL d\u0027Ille\u003C\/a\u003E","description":"\u003Cimg src = \u0022http:\/\/seldille.org\/system\/files\/logo-val-dille.gif\u0022 align=\u0022left\u0022 width=\u002230\u0022\u003E\u003Cbr \/\u003EActive members: 1","marker-color":"#0571BC"}},{"type":"Feature","geometry":{"type":"Point","coordinates":[1.3623047,48.7308322]},"properties":{"title":"\u003Ca href=\u0022http:\/\/seldrouais.org\u0022\u003ESEL DU DROUAIS\u003C\/a\u003E","description":"\u003Cimg src = \u0022http:\/\/seldrouais.org\/system\/files\/logosel.jpg\u0022 align=\u0022left\u0022 width=\u002230\u0022\u003EJe rends service, tu rends service on re\u00e7oit tous ...\u003Cbr \/\u003EActive members: 11","marker-color":"#0571BC"}},{"type":"Feature","geometry":{"type":"Point","coordinates":[7.49267578125,43.771093817757]},"properties":{"title":"\u003Ca href=\u0022http:\/\/selducitron.communityforge.net\u0022\u003ESEL du Citron\u003C\/a\u003E","description":"\u003Cimg src = \u0022http:\/\/selducitron.communityforge.net\/sites\/selducitron.communityforge.net\/files\/sky_seldulac_logo.gif\u0022 align=\u0022left\u0022 width=\u002230\u0022\u003EEchangeons des Zestes de Citron - et de convivialit\u00e9 !\u003Cbr \/\u003EActive members: 53","marker-color":"#0571BC"}},{"type":"Feature","geometry":{"type":"Point","coordinates":[6.2258148,46.1883875]},"properties":{"title":"\u003Ca href=\u0022http:\/\/seldugenevois.fr\u0022\u003ESEL d\u0027Annemasse - Genevois\u003C\/a\u003E","description":"\u003Cimg src = \u0022http:\/\/seldugenevois.fr\/sites\/seldugenevois.fr\/files\/sky_seldulac_logo.jpg\u0022 align=\u0022left\u0022 width=\u002230\u0022\u003EPour changer, \u00e9changeons !\u003Cbr \/\u003EActive members: 46","marker-color":"#0571BC"}},{"type":"Feature","geometry":{"type":"Point","coordinates":[3.3803558,49.5993629]},"properties":{"title":"\u003Ca href=\u0022http:\/\/seldugobanais.communityforge.net\u0022\u003ESel du Gobanais\u003C\/a\u003E","description":"Echangeons Solidaire !\u003Cbr \/\u003EActive members: 4","marker-color":"#0571BC"}},{"type":"Feature","geometry":{"type":"Point","coordinates":[6.588406,46.099185]},"properties":{"title":"\u003Ca href=\u0022http:\/\/selduhautgiffre.communityforge.net\u0022\u003ESEL\u003C\/a\u003E","description":"\u003Cimg src = \u0022http:\/\/selduhautgiffre.communityforge.net\/system\/files\/logo_1.jpg\u0022 align=\u0022left\u0022 width=\u002230\u0022\u003ELe lien est plus important que le bien\u003Cbr \/\u003EActive members: 11","marker-color":"#0571BC"}},{"type":"Feature","geometry":{"type":"Point","coordinates":[0.1153564,49.4913226]},"properties":{"title":"\u003Ca href=\u0022http:\/\/selduhavre.communityforge.net\u0022\u003ESEL du Havre\u003C\/a\u003E","description":"\u003Cimg src = \u0022http:\/\/selduhavre.communityforge.net\/system\/files\/logo-selduhavre.jpg\u0022 align=\u0022left\u0022 width=\u002230\u0022\u003EEchanger sans argent, \u00e7a change ! \u003Cbr \/\u003EActive members: 25","marker-color":"#0571BC"}},{"type":"Feature","geometry":{"type":"Point","coordinates":[6.142161,46.1983922]},"properties":{"title":"\u003Ca href=\u0022http:\/\/seldulac.ch\u0022\u003ESELduLac\u003C\/a\u003E","description":"\u003Cimg src = \u0022http:\/\/seldulac.ch\/sites\/seldulac.ch\/files\/sky_seldulac_logo.gif\u0022 align=\u0022left\u0022 width=\u002230\u0022\u003EEchangeons, pour changer !\u003Cbr \/\u003EActive members: 38","marker-color":"#0571BC"}},{"type":"Feature","geometry":{"type":"Point","coordinates":[4.8298645,46.3082842]},"properties":{"title":"\u003Ca href=\u0022http:\/\/seldumaconnais.communityforge.net\u0022\u003ESel\u003C\/a\u003E","description":"\u003Cimg src = \u0022http:\/\/seldumaconnais.communityforge.net\/system\/files\/sel-couleurs-a-imprimer-1.jpg\u0022 align=\u0022left\u0022 width=\u002230\u0022\u003E\u003Cbr \/\u003EActive members: 69","marker-color":"#0571BC"}},{"type":"Feature","geometry":{"type":"Point","coordinates":[0.1922334,48]},"properties":{"title":"\u003Ca href=\u0022http:\/\/seldumaine.fr\u0022\u003ESEL du Maine\u003C\/a\u003E","description":"\u003Cimg src = \u0022http:\/\/seldumaine.fr\/sites\/seldumaine.fr\/files\/logo SEL site.gif\u0022 align=\u0022left\u0022 width=\u002230\u0022\u003EUn Syst\u00e8me d\u0027Echanges Local sarthois (72)\u003Cbr \/\u003EActive members: 72","marker-color":"#0571BC"}},{"type":"Feature","geometry":{"type":"Point","coordinates":[1.7207336,48.9793157]},"properties":{"title":"\u003Ca href=\u0022http:\/\/seldumantois.communityforge.net\u0022\u003Eseldumantois.communityforge.net\u003C\/a\u003E","description":"\u003Cimg src = \u0022http:\/\/seldumantois.communityforge.net\/system\/files\/LogoSelduMantois.jpg\u0022 align=\u0022left\u0022 width=\u002230\u0022\u003EBienvenue dans le SEL du Mantois !\u003Cbr \/\u003EActive members: 17","marker-color":"#0571BC"}},{"type":"Feature","geometry":{"type":"Point","coordinates":[6.0596466,46.3343656]},"properties":{"title":"\u003Ca href=\u0022http:\/\/seldupaysdegex.fr\u0022\u003ESyst\u00e8me d\u0027Echanges Local\u003C\/a\u003E","description":"\u003Cimg src = \u0022http:\/\/seldupaysdegex.fr\/system\/files\/logo colibris_0.png\u0022 align=\u0022left\u0022 width=\u002230\u0022\u003E\u003Cbr \/\u003EActive members: 13","marker-color":"#0571BC"}},{"type":"Feature","geometry":{"type":"Point","coordinates":[5.6651688,45.8754293]},"properties":{"title":"\u003Ca href=\u0022http:\/\/selenbugey.communityforge.net\u0022\u003ESel en Bugey\u003C\/a\u003E","description":"\u003Cimg src = \u0022http:\/\/selenbugey.communityforge.net\/system\/files\/SEL-EN-BUGEY_logo couleur.jpg\u0022 align=\u0022left\u0022 width=\u002230\u0022\u003E\u0022Le lien est plus important que le bien\u0022\u003Cbr \/\u003EActive members: 18","marker-color":"#0571BC"}},{"type":"Feature","geometry":{"type":"Point","coordinates":[0.6461334,47.3518499]},"properties":{"title":"\u003Ca href=\u0022http:\/\/selenjoue.org\u0022\u003ESel de Jou\u00e9 les Tours\u003C\/a\u003E","description":"\u003Cimg src = \u0022http:\/\/selenjoue.org\/system\/files\/logo.jpg\u0022 align=\u0022left\u0022 width=\u002230\u0022\u003ESysteme d\u0027Echange Local\u003Cbr \/\u003EActive members: 41","marker-color":"#0571BC"}},{"type":"Feature","geometry":{"type":"Point","coordinates":[4.8106384,43.9463612]},"properties":{"title":"\u003Ca href=\u0022http:\/\/selensemble.org\u0022\u003ESEL Ensemble Avignon et Environs\u003C\/a\u003E","description":"\u003Cimg src = \u0022http:\/\/selensemble.org\/system\/files\/sel-ensemble_0.png\u0022 align=\u0022left\u0022 width=\u002230\u0022\u003ELe syst\u00e8me d\u0027\u00e9change local d\u0027Avignon et environs\u003Cbr \/\u003EActive members: 50","marker-color":"#0571BC"}},{"type":"Feature","geometry":{"type":"Point","coordinates":[-1.6167068,47.1747783]},"properties":{"title":"\u003Ca href=\u0022http:\/\/selentraide.communityforge.net\u0022\u003Eselentraide.communityforge.net\u003C\/a\u003E","description":"\u003Cimg src = \u0022http:\/\/selentraide.communityforge.net\/system\/files\/Logo Sel\u0027entraide.jpg\u0022 align=\u0022left\u0022 width=\u002230\u0022\u003E\u0022La rencontre de l\u0027autre vaut tout l\u0027or du monde\u0022\u003Cbr \/\u003EActive members: 23","marker-color":"#0571BC"}},{"type":"Feature","geometry":{"type":"Point","coordinates":[2.9432202,42.9201664]},"properties":{"title":"\u003Ca href=\u0022http:\/\/selenvigne.fr\u0022\u003Eselenvigne.fr\u003C\/a\u003E","description":"\u003Cimg src = \u0022http:\/\/selenvigne.fr\/system\/files\/Logo sel.jpg\u0022 align=\u0022left\u0022 width=\u002230\u0022\u003EPour changer, \u00e9changeons\u003Cbr \/\u003EActive members: 11","marker-color":"#0571BC"}},{"type":"Feature","geometry":{"type":"Point","coordinates":[4.52156,50.712636]},"properties":{"title":"\u003Ca href=\u0022http:\/\/seleri.be\u0022\u003ESELeri, le SEL de Rixensart, La Hulpe et environs\u003C\/a\u003E","description":"\u003Cimg src = \u0022http:\/\/seleri.be\/sites\/seleri.be\/files\/sky_seldulac_logo.jpg\u0022 align=\u0022left\u0022 width=\u002230\u0022\u003EPour changer, \u00e9changeons !\u003Cbr \/\u003EActive members: 112","marker-color":"#0571BC"}},{"type":"Feature","geometry":{"type":"Point","coordinates":[5.568372,50.5348168]},"properties":{"title":"\u003Ca href=\u0022http:\/\/selesneux.be\u0022\u003ESELesneux\u003C\/a\u003E","description":"\u003Cimg src = \u0022http:\/\/selesneux.be\/sites\/selesneux.be\/files\/sky_seldulac_logo.jpg\u0022 align=\u0022left\u0022 width=\u002230\u0022\u003ELes feuilles font l\u0027arbre\u003Cbr \/\u003EActive members: 71","marker-color":"#0571BC"}},{"type":"Feature","geometry":{"type":"Point","coordinates":[2.4506378,48.8629079]},"properties":{"title":"\u003Ca href=\u0022http:\/\/sel-est-de-montreuil.org\u0022\u003ESEL-EST DE MONTREUIL\u003C\/a\u003E","description":"\u003Cimg src = \u0022http:\/\/sel-est-de-montreuil.org\/sites\/sel-est-de-montreuil.org\/files\/sky_seldulac_logo.jpg\u0022 align=\u0022left\u0022 width=\u002230\u0022\u003EPour changer, \u00e9changeons\u003Cbr \/\u003EActive members: 25","marker-color":"#0571BC"}},{"type":"Feature","geometry":{"type":"Point","coordinates":[2.6992893,48.4885104]},"properties":{"title":"\u003Ca href=\u0022http:\/\/selfleurdeseine.communityforge.net\u0022\u003Eselfleurdeseine.communityforge.net\u003C\/a\u003E","description":"\u003Cimg src = \u0022http:\/\/selfleurdeseine.communityforge.net\/system\/files\/Nouveau logo 3 fleurs CK.jpg\u0022 align=\u0022left\u0022 width=\u002230\u0022\u003ELe SEL, j\u0027aime!\u003Cbr \/\u003EActive members: 35","marker-color":"#0571BC"}},{"type":"Feature","geometry":{"type":"Point","coordinates":[6.95645,47.22417]},"properties":{"title":"\u003Ca href=\u0022http:\/\/sel-fm.ch\u0022\u003ESEL Franches-Montagnes\u003C\/a\u003E","description":"\u003Cimg src = \u0022http:\/\/sel-fm.ch\/system\/files\/sel2.jpg\u0022 align=\u0022left\u0022 width=\u002230\u0022\u003E... allez aux pives...\u003Cbr \/\u003EActive members: 53","marker-color":"#0571BC"}},{"type":"Feature","geometry":{"type":"Point","coordinates":[5.6878281,45.1926835]},"properties":{"title":"\u003Ca href=\u0022http:\/\/selfontaine.communityforge.net\u0022\u003ESEL de Fontaine - Is\u00e8re\u003C\/a\u003E","description":"Pour changer, \u00e9changeons.\u003Cbr \/\u003EActive members: 16","marker-color":"#0571BC"}},{"type":"Feature","geometry":{"type":"Point","coordinates":[4.6973419,50.396263]},"properties":{"title":"\u003Ca href=\u0022http:\/\/selfosselaville.communityforge.net\u0022\u003ESEL\u0027F\u003C\/a\u003E","description":"\u003Cimg src = \u0022http:\/\/selfosselaville.communityforge.net\/system\/files\/1506746_102864036746772_110772153149611913_n_0.jpg\u0022 align=\u0022left\u0022 width=\u002230\u0022\u003EBienvenue au SEL\u0027Fosses-la-ville\u003Cbr \/\u003EActive members: 6","marker-color":"#0571BC"}},{"type":"Feature","geometry":{"type":"Point","coordinates":[4.8841095,45.698027]},"properties":{"title":"\u003Ca href=\u0022http:\/\/selgrandesterres.communityforge.net\u0022\u003ESEL des Grandes Terres\u003C\/a\u003E","description":"\u003Cimg src = \u0022http:\/\/selgrandesterres.communityforge.net\/system\/files\/echanges.png\u0022 align=\u0022left\u0022 width=\u002230\u0022\u003ELe SEL du Sud Est Lyonnais\u003Cbr \/\u003EActive members: 19","marker-color":"#0571BC"}},{"type":"Feature","geometry":{"type":"Point","coordinates":[-2.121048,47.9041453]},"properties":{"title":"\u003Ca href=\u0022http:\/\/seliguer.org\u0022\u003E SEL \u00ee Guer\u003C\/a\u003E","description":"\u003Cimg src = \u0022http:\/\/seliguer.org\/system\/files\/LogoSEL_i_Guer.png\u0022 align=\u0022left\u0022 width=\u002230\u0022\u003E Bro SEL iande\u003Cbr \/\u003EActive members: 14","marker-color":"#0571BC"}},{"type":"Feature","geometry":{"type":"Point","coordinates":[1.4374924,43.6030188]},"properties":{"title":"\u003Ca href=\u0022http:\/\/seljaime.communityforge.net\u0022\u003Eseljaime\u003C\/a\u003E","description":"\u00ab La rencontre de l\u0027autre vaut tout l\u0027or du monde \u00bb\u003Cbr \/\u003EActive members: 12","marker-color":"#0571BC"}},{"type":"Feature","geometry":{"type":"Point","coordinates":[7.2046,46.6019]},"properties":{"title":"\u003Ca href=\u0022http:\/\/seljogne.ch\u0022\u003ESEL de la vall\u00e9e de la Jogne\u003C\/a\u003E","description":"\u003Cimg src = \u0022http:\/\/seljogne.ch\/sites\/seljogne.ch\/files\/logo_arbre_francais_0.jpg\u0022 align=\u0022left\u0022 width=\u002230\u0022\u003EDonner - Recevoir - Partager - Se rencontrer\u003Cbr \/\u003EActive members: 26","marker-color":"#0571BC"}},{"type":"Feature","geometry":{"type":"Point","coordinates":[6.8324661,47.1023817]},"properties":{"title":"\u003Ca href=\u0022http:\/\/sel-la-chaux-de-fonds.communityforge.net\u0022\u003ESEL La Chaux-de-Fonds\u003C\/a\u003E","description":"\u003Cimg src = \u0022http:\/\/sel-la-chaux-de-fonds.communityforge.net\/system\/files\/Logo.jpg\u0022 align=\u0022left\u0022 width=\u002230\u0022\u003ESyst\u00e8me d\u0027Echanges Local\u003Cbr \/\u003EActive members: 49","marker-color":"#0571BC"}},{"type":"Feature","geometry":{"type":"Point","coordinates":[-0.8878326,46.2173767]},"properties":{"title":"\u003Ca href=\u0022http:\/\/sellapigouille.org\u0022\u003ESEL La Pigouille\u003C\/a\u003E","description":"\u003Cimg src = \u0022http:\/\/sellapigouille.org\/sites\/sellapigouille.org\/files\/sky_seldulac_logo.jpg\u0022 align=\u0022left\u0022 width=\u002230\u0022\u003EPour changer le Monde, Echangeons...\u003Cbr \/\u003EActive members: 4","marker-color":"#0571BC"}},{"type":"Feature","geometry":{"type":"Point","coordinates":[6.8007088,47.2515044]},"properties":{"title":"\u003Ca href=\u0022http:\/\/selmaichois.communityforge.net\u0022\u003Eselmaichois.communityforge.net\u003C\/a\u003E","description":"Toutes les grandeurs de ce monde ne valent pas un bon amis\u003Cbr \/\u003EActive members: 5","marker-color":"#0571BC"}},{"type":"Feature","geometry":{"type":"Point","coordinates":[5.3400421,50.2274416]},"properties":{"title":"\u003Ca href=\u0022http:\/\/sel.marche.be\u0022\u003Emarch\u0027SEL\u003C\/a\u003E","description":"\u003Cbr \/\u003EActive members: 85","marker-color":"#0571BC"}},{"type":"Feature","geometry":{"type":"Point","coordinates":[4.9849606,50.4443056]},"properties":{"title":"\u003Ca href=\u0022http:\/\/selogazion.communityforge.net\u0022\u003ESelOGAzion\u003C\/a\u003E","description":"\u003Cimg src = \u0022http:\/\/selogazion.communityforge.net\/system\/files\/logo_selogazion.jpg\u0022 align=\u0022left\u0022 width=\u002230\u0022\u003ELa solidarit\u00e9 comme monnaie...\u003Cbr \/\u003EActive members: 27","marker-color":"#0571BC"}},{"type":"Feature","geometry":{"type":"Point","coordinates":[5.0331116,43.8285828]},"properties":{"title":"\u003Ca href=\u0022http:\/\/selonnous.communityforge.net\u0022\u003ESEL\u0027ons-nous\u003C\/a\u003E","description":"\u003Cimg src = \u0022http:\/\/selonnous.communityforge.net\/system\/files\/logoV1selonnous.png\u0022 align=\u0022left\u0022 width=\u002230\u0022\u003ESYSTEME D\u0027ECHANGE LOCAL DE CAVAILLON ET SES ENVIRONS\u003Cbr \/\u003EActive members: 29","marker-color":"#0571BC"}},{"type":"Feature","geometry":{"type":"Point","coordinates":[4.8010251,45.7176862]},"properties":{"title":"\u003Ca href=\u0022http:\/\/seloullins.communityforge.net\u0022\u003Eseloullins.communityforge.net\u003C\/a\u003E","description":"\u003Cimg src = \u0022http:\/\/seloullins.communityforge.net\/system\/files\/logo.jpg\u0022 align=\u0022left\u0022 width=\u002230\u0022\u003Ele lien plut\u00f4t que le bien - SEL Cailloullin\u003Cbr \/\u003EActive members: 66","marker-color":"#0571BC"}},{"type":"Feature","geometry":{"type":"Point","coordinates":[4.6677303,45.5638236]},"properties":{"title":"\u003Ca href=\u0022http:\/\/selozange.communityforge.net\u0022\u003E SELozange \u003C\/a\u003E","description":"\u003Cimg src = \u0022http:\/\/selozange.communityforge.net\/system\/files\/logo-selozange.png\u0022 align=\u0022left\u0022 width=\u002230\u0022\u003ELe LIEN est plus important que le BIEN\u003Cbr \/\u003EActive members: 14","marker-color":"#0571BC"}},{"type":"Feature","geometry":{"type":"Point","coordinates":[1.4455605,49.9733056]},"properties":{"title":"\u003Ca href=\u0022http:\/\/selpastel.lescigales.org\u0022\u003ESEL\u0027Pastel\u003C\/a\u003E","description":"Pour changer, \u00e9changeons!\u003Cbr \/\u003EActive members: 3","marker-color":"#0571BC"}},{"type":"Feature","geometry":{"type":"Point","coordinates":[6.1138916,50.4159562]},"properties":{"title":"\u003Ca href=\u0022http:\/\/selpowaimes.be\u0022\u003Eselpowaimes.be\u003C\/a\u003E","description":"\u003Cimg src = \u0022http:\/\/selpowaimes.be\/sites\/selpowaimes.be\/files\/sky_seldulac_logo.jpg\u0022 align=\u0022left\u0022 width=\u002230\u0022\u003ELes rimes font le po\u00e8me\u003Cbr \/\u003EActive members: 39","marker-color":"#0571BC"}},{"type":"Feature","geometry":{"type":"Point","coordinates":[1.8772888,43.0859404]},"properties":{"title":"\u003Ca href=\u0022http:\/\/selpyreneen.org\u0022\u003ESEL Pyr\u00e9n\u00e9en\u003C\/a\u003E","description":"\u003Cimg src = \u0022http:\/\/selpyreneen.org\/sites\/selpyreneen.org\/files\/sky_seldulac_logo.gif\u0022 align=\u0022left\u0022 width=\u002230\u0022\u003EPour changer, Echangeons\u003Cbr \/\u003EActive members: 13","marker-color":"#0571BC"}},{"type":"Feature","geometry":{"type":"Point","coordinates":[0.9098053,47.592099]},"properties":{"title":"\u003Ca href=\u0022http:\/\/selracan37.fr\u0022\u003Eselracan37.fr\u003C\/a\u003E","description":"\u003Cimg src = \u0022http:\/\/selracan37.fr\/system\/files\/coqlogo2_0.jpg\u0022 align=\u0022left\u0022 width=\u002230\u0022\u003EEchanges de services de biens et de savoirs\u003Cbr \/\u003EActive members: 20","marker-color":"#0571BC"}},{"type":"Feature","geometry":{"type":"Point","coordinates":[-0.2071953,46.4124167]},"properties":{"title":"\u003Ca href=\u0022http:\/\/selrit.communityforge.net\u0022\u003Eselrit.communityforge.net\u003C\/a\u003E","description":"\u003Cimg src = \u0022http:\/\/selrit.communityforge.net\/system\/files\/Logo.jpg\u0022 align=\u0022left\u0022 width=\u002230\u0022\u003ESyst\u00e8me d\u0027Echanges Local de Saint Maixent L\u0027Ecole et ses environs\u003Cbr \/\u003EActive members: 7","marker-color":"#0571BC"}},{"type":"Feature","geometry":{"type":"Point","coordinates":[-0.7141113,44.8955254]},"properties":{"title":"\u003Ca href=\u0022http:\/\/sel-saint-medard-en-jalles.communityforge.net\u0022\u003ESEL St M\u00e9dard en Jalles\u003C\/a\u003E","description":"\u003Cimg src = \u0022http:\/\/sel-saint-medard-en-jalles.communityforge.net\/system\/files\/logo_sel_de_cergy_couleur.png\u0022 align=\u0022left\u0022 width=\u002230\u0022\u003ESyst\u00e8me d\u0027Echange Local, association \u00e0 but non lucratif\u003Cbr \/\u003EActive members: 14","marker-color":"#0571BC"}},{"type":"Feature","geometry":{"type":"Point","coordinates":[5.509681,50.5834546]},"properties":{"title":"\u003Ca href=\u0022http:\/\/selserein.be\u0022\u003ESEL Serein\u003C\/a\u003E","description":"\u003Cimg src = \u0022http:\/\/selserein.be\/sites\/selserein.be\/files\/sky_seldulac_logo.png\u0022 align=\u0022left\u0022 width=\u002230\u0022\u003ELe SEL de SERAING ... (et BONCELLES, OUGREE, JEMEPPE) !\u003Cbr \/\u003EActive members: 10","marker-color":"#0571BC"}},{"type":"Feature","geometry":{"type":"Point","coordinates":[5.838325,45.152198]},"properties":{"title":"\u003Ca href=\u0022http:\/\/selsmu.communityforge.net\u0022\u003ESEL de Saint Martin d\u0027Uriage\u003C\/a\u003E","description":"\u003Cimg src = \u0022http:\/\/selsmu.communityforge.net\/system\/files\/Raspberry_Pi_Logo.png\u0022 align=\u0022left\u0022 width=\u002230\u0022\u003E\u003Cbr \/\u003EActive members: 20","marker-color":"#0571BC"}},{"type":"Feature","geometry":{"type":"Point","coordinates":[4.3626022,50.747644]},"properties":{"title":"\u003Ca href=\u0022http:\/\/selsourire.be\u0022\u003ESelsourire - Smilets\u003C\/a\u003E","description":"\u003Cimg src = \u0022http:\/\/selsourire.be\/system\/files\/sourire-2.jpg\u0022 align=\u0022left\u0022 width=\u002230\u0022\u003ETendre la main c\u0027est apporter un sourire \u00e0 l\u0027autre\u003Cbr \/\u003EActive members: 16","marker-color":"#0571BC"}},{"type":"Feature","geometry":{"type":"Point","coordinates":[4.4298935,45.4810771]},"properties":{"title":"\u003Ca href=\u0022http:\/\/selstjean.communityforge.net\u0022\u003ESel de St-Jean\u003C\/a\u003E","description":"\u003Cimg src = \u0022http:\/\/selstjean.communityforge.net\/system\/files\/Capture d\u2019e\u0301cran 2016-09-23 a\u0300 17.08.44.png\u0022 align=\u0022left\u0022 width=\u002230\u0022\u003ESyst\u00e8me d\u0027\u00c9change Local de Saint-Jean Bonnefonds, La Talaudi\u00e8re, Sorbiers\u003Cbr \/\u003EActive members: 20","marker-color":"#0571BC"}},{"type":"Feature","geometry":{"type":"Point","coordinates":[-1.5052986,47.2052255]},"properties":{"title":"\u003Ca href=\u0022http:\/\/selstseb.asso.st\u0022\u003ESEL St Seb\u003C\/a\u003E","description":"\u003Cimg src = \u0022http:\/\/selstseb.asso.st\/system\/files\/Logo.gif\u0022 align=\u0022left\u0022 width=\u002230\u0022\u003EPour changer, \u00e9changeons...\u003Cbr \/\u003EActive members: 10","marker-color":"#0571BC"}},{"type":"Feature","geometry":{"type":"Point","coordinates":[5.7534027,43.136694]},"properties":{"title":"\u003Ca href=\u0022http:\/\/selsudsaintebaume.communityforge.net\u0022\u003Eselsudsaintebaume.communityforge.net\u003C\/a\u003E","description":"\u003Cimg src = \u0022http:\/\/selsudsaintebaume.communityforge.net\/system\/files\/LogoSSSB-1.jpg\u0022 align=\u0022left\u0022 width=\u002230\u0022\u003E\u003Cbr \/\u003EActive members: 32","marker-color":"#0571BC"}},{"type":"Feature","geometry":{"type":"Point","coordinates":[6.4783287,46.3734643]},"properties":{"title":"\u003Ca href=\u0022http:\/\/selthonon.communityforge.net\u0022\u003ES.E.L. THONON-LEMAN\u003C\/a\u003E","description":"\u003Cimg src = \u0022http:\/\/selthonon.communityforge.net\/system\/files\/logo-stl.jpg\u0022 align=\u0022left\u0022 width=\u002230\u0022\u003ESe rendre service, \u00e7a n\u0027a pas de prix\u003Cbr \/\u003EActive members: 7","marker-color":"#0571BC"}},{"type":"Feature","geometry":{"type":"Point","coordinates":[-1.2850571,47.3470814]},"properties":{"title":"\u003Ca href=\u0022http:\/\/seltitude.fr\u0022\u003ESel\u0027titude\u003C\/a\u003E","description":"\u003Cimg src = \u0022http:\/\/seltitude.fr\/system\/files\/LOGO Sel\u0027titude d\u00e9finitif.jpg\u0022 align=\u0022left\u0022 width=\u002230\u0022\u003ELe lien est plus important que le bien\u003Cbr \/\u003EActive members: 17","marker-color":"#0571BC"}},{"type":"Feature","geometry":{"type":"Point","coordinates":[3.1331635,50.6224594]},"properties":{"title":"\u003Ca href=\u0022http:\/\/sel-vascq.communityforge.net\u0022\u003ESEL de Villeneuve d\u0027Ascq\u003C\/a\u003E","description":"\u003Cimg src = \u0022http:\/\/sel-vascq.communityforge.net\/system\/files\/arbre_logo_0_0.gif\u0022 align=\u0022left\u0022 width=\u002230\u0022\u003E\u0022L\u0027Arbre\u0022 : Le Lien est plus Important que le Bien\u003Cbr \/\u003EActive members: 47","marker-color":"#0571BC"}},{"type":"Feature","geometry":{"type":"Point","coordinates":[172.4780765,-43.6423962]},"properties":{"title":"\u003Ca href=\u0022http:\/\/selwyntimebank.net.nz\u0022\u003ESelwyn Timebank\u003C\/a\u003E","description":"Time Banking refers to a pattern of reciprocal service exchange which uses units of time as currency.\u003Cbr \/\u003EActive members: 26","marker-color":"#0571BC"}},{"type":"Feature","geometry":{"type":"Point","coordinates":[0.723381,43.1072495]},"properties":{"title":"\u003Ca href=\u0022http:\/\/selygo.communityforge.net\u0022\u003Eselygo.communityforge.net\u003C\/a\u003E","description":"\u003Cimg src = \u0022http:\/\/selygo.communityforge.net\/system\/files\/SELyGo - logo - recherche couleurs - 5 (2).jpg\u0022 align=\u0022left\u0022 width=\u002230\u0022\u003ELa rencontre de l\u0027autre vaut tout l\u0027or du monde\u003Cbr \/\u003EActive members: 13","marker-color":"#0571BC"}},{"type":"Feature","geometry":{"type":"Point","coordinates":[7.1242905,43.5816344]},"properties":{"title":"\u003Ca href=\u0022http:\/\/semboules.communityforge.net\u0022\u003ESEL des 100Boules\u003C\/a\u003E","description":"\u003Cimg src = \u0022http:\/\/semboules.communityforge.net\/system\/files\/LOGO ABEILLE 100BOULES COULEURS.jpg\u0022 align=\u0022left\u0022 width=\u002230\u0022\u003E\u0022Le lien vaut mieux que le bien\u0022\u003Cbr \/\u003EActive members: 5","marker-color":"#0571BC"}},{"type":"Feature","geometry":{"type":"Point","coordinates":[3.273157,48.1514281]},"properties":{"title":"\u003Ca href=\u0022http:\/\/senonais.communityforge.net\u0022\u003ESEL du S\u00e9nonais\u003C\/a\u003E","description":"\u003Cimg src = \u0022http:\/\/senonais.communityforge.net\/sites\/senonais.communityforge.net\/files\/sky_seldulac_logo.jpg\u0022 align=\u0022left\u0022 width=\u002230\u0022\u003EPour changer, \u00e9changeons !\u003Cbr \/\u003EActive members: 11","marker-color":"#0571BC"}},{"type":"Feature","geometry":{"type":"Point","coordinates":[7.94454,49.036858]},"properties":{"title":"\u003Ca href=\u0022http:\/\/solisel.communityforge.net\u0022\u003ESolisel.communityforge.net\u003C\/a\u003E","description":"\u003Cimg src = \u0022http:\/\/solisel.communityforge.net\/system\/files\/16467370_379506089074277_344700650_n.jpg\u0022 align=\u0022left\u0022 width=\u002230\u0022\u003E\u0022L\u0027horloge de la solidarit\u00e9 humaine\u0022\u003Cbr \/\u003EActive members: 12","marker-color":"#0571BC"}},{"type":"Feature","geometry":{"type":"Point","coordinates":[7.4072299,47.7478404]},"properties":{"title":"\u003Ca href=\u0022http:\/\/sourisel68.fr\u0022\u003Esouri\u0027SEL \u003C\/a\u003E","description":"\u003Cimg src = \u0022http:\/\/sourisel68.fr\/system\/files\/logo_1.jpg\u0022 align=\u0022left\u0022 width=\u002230\u0022\u003ESyst\u00e8me Echange Local\u003Cbr \/\u003EActive members: 16","marker-color":"#0571BC"}},{"type":"Feature","geometry":{"type":"Point","coordinates":[2.2207832,48.8706995]},"properties":{"title":"\u003Ca href=\u0022http:\/\/suresnesensel.communityforge.net\u0022\u003Esuresnesensel.org\u003C\/a\u003E","description":"\u003Cimg src = \u0022http:\/\/suresnesensel.communityforge.net\/system\/files\/MMONOT_SEL_SURESNES_LOGO.png\u0022 align=\u0022left\u0022 width=\u002230\u0022\u003EChacun peut y mettre son grain\u003Cbr \/\u003EActive members: 20","marker-color":"#0571BC"}},{"type":"Feature","geometry":{"type":"Point","coordinates":[-0.5893135,44.8020576]},"properties":{"title":"\u003Ca href=\u0022http:\/\/talensel.communityforge.net\u0022\u003EClub TalenSeL\u003C\/a\u003E","description":"\u003Cimg src = \u0022http:\/\/talensel.communityforge.net\/system\/files\/logo_grand.png\u0022 align=\u0022left\u0022 width=\u002230\u0022\u003ESyst\u00e8me d\u0027\u00e9change local \u003Cbr \/\u003EActive members: 24","marker-color":"#0571BC"}},{"type":"Feature","geometry":{"type":"Point","coordinates":[6.1267662,50.2814419]},"properties":{"title":"\u003Ca href=\u0022http:\/\/tauschring-eifelgold.be\u0022\u003ETAUSCHRING EIFELGOLD\u003C\/a\u003E","description":"\u003Cimg src = \u0022http:\/\/tauschring-eifelgold.be\/system\/files\/Logo_TR_Eifelgold_kl_0_0.jpg\u0022 align=\u0022left\u0022 width=\u002230\u0022\u003EPartnerschaftliches Geben und Nehmen\u003Cbr \/\u003EActive members: 17","marker-color":"#0571BC"}},{"type":"Feature","geometry":{"type":"Point","coordinates":[6.929273,46.989987]},"properties":{"title":"\u003Ca href=\u0022http:\/\/tcsrfv.communityforge.net\u0022\u003EC-S-R-F-V\u003C\/a\u003E","description":"\u003Cimg src = \u0022http:\/\/tcsrfv.communityforge.net\/system\/files\/csrfv.jpg\u0022 align=\u0022left\u0022 width=\u002230\u0022\u003ECoordination Suisse Romande \u0026 France Voisine\u003Cbr \/\u003EActive members: 16","marker-color":"#0571BC"}},{"type":"Feature","geometry":{"type":"Point","coordinates":[5.7465363,47.5575305]},"properties":{"title":"\u003Ca href=\u0022http:\/\/terrederichesse.communityforge.net\u0022\u003Eterrederichesse.communityforge.net\u003C\/a\u003E","description":"\u003Cimg src = \u0022http:\/\/terrederichesse.communityforge.net\/system\/files\/logo - Copie_0.jpg\u0022 align=\u0022left\u0022 width=\u002230\u0022\u003ETerre de \u0022R\u00e9seau Inter-Communautaire Humaniste d\u0027 Echanges Sociaux Solidaires et Equitable\u0022\u003Cbr \/\u003EActive members: 4","marker-color":"#0571BC"}},{"type":"Feature","geometry":{"type":"Point","coordinates":[4.627967,45.086423]},"properties":{"title":"\u003Ca href=\u0022http:\/\/tersel07.communityforge.net\u0022\u003Etersel07.communityforge.net\u003C\/a\u003E","description":"\u003Cimg src = \u0022http:\/\/tersel07.communityforge.net\/system\/files\/T07.logo ombre\u0301_0.jpg\u0022 align=\u0022left\u0022 width=\u002230\u0022\u003Eun SEL pr\u00e8s de chez vous\u003Cbr \/\u003EActive members: 9","marker-color":"#0571BC"}},{"type":"Feature","geometry":{"type":"Point","coordinates":[2.1442223,48.9474208]},"properties":{"title":"\u003Ca href=\u0022http:\/\/tousensel.com\u0022\u003ETous en SEL\u003C\/a\u003E","description":"\u003Cimg src = \u0022http:\/\/tousensel.com\/system\/files\/LogoMLDD-TousEnSel-site.png\u0022 align=\u0022left\u0022 width=\u002230\u0022\u003ELe SEL de Maisons-Laffitte, Mesnil Le Roi, Sartrouville\u003Cbr \/\u003EActive members: 47","marker-color":"#0571BC"}},{"type":"Feature","geometry":{"type":"Point","coordinates":[4.8820496,44.0857355]},"properties":{"title":"\u003Ca href=\u0022http:\/\/tousensel.communityforge.net\u0022\u003ETous En SEL\u003C\/a\u003E","description":"\u003Cimg src = \u0022http:\/\/tousensel.communityforge.net\/system\/files\/009.jpeg\u0022 align=\u0022left\u0022 width=\u002230\u0022\u003ECourth\u00e9zon et ses Environs\u003Cbr \/\u003EActive members: 3","marker-color":"#0571BC"}},{"type":"Feature","geometry":{"type":"Point","coordinates":[-2.8478622,48.1908101]},"properties":{"title":"\u003Ca href=\u0022http:\/\/troqueurs-de-lin.communityforge.net\u0022\u003Etroqueurs-de-lin.communityforge.net\u003C\/a\u003E","description":"\u003Cimg src = \u0022http:\/\/troqueurs-de-lin.communityforge.net\/system\/files\/lin.jpg\u0022 align=\u0022left\u0022 width=\u002230\u0022\u003EMettez ici votre slogan\u003Cbr \/\u003EActive members: 5","marker-color":"#0571BC"}},{"type":"Feature","geometry":{"type":"Point","coordinates":[-0.0772476,47.2580291]},"properties":{"title":"\u003Ca href=\u0022http:\/\/tuffeetfaluns49.fr\u0022\u003Etuffe-faluns.communityforge.net\u003C\/a\u003E","description":"\u003Cimg src = \u0022http:\/\/tuffeetfaluns49.fr\/system\/files\/LOGO Tuffe et Faluns.jpg\u0022 align=\u0022left\u0022 width=\u002230\u0022\u003ETuffe et Faluns\u003Cbr \/\u003EActive members: 12","marker-color":"#0571BC"}},{"type":"Feature","geometry":{"type":"Point","coordinates":[-1.3053131,45.9427945]},"properties":{"title":"\u003Ca href=\u0022http:\/\/uneileversel.communityforge.net\u0022\u003Euneileversel\u003C\/a\u003E","description":"\u003Cimg src = \u0022http:\/\/uneileversel.communityforge.net\/system\/files\/logo_sel_70x30_couleur.png\u0022 align=\u0022left\u0022 width=\u002230\u0022\u003Edonne la priorite au relationnel face \u00e0 la monnaie\u003Cbr \/\u003EActive members: 5","marker-color":"#0571BC"}},{"type":"Feature","geometry":{"type":"Point","coordinates":[4.8717499,50.7227642]},"properties":{"title":"\u003Ca href=\u0022http:\/\/unis-vers-sel.net\u0022\u003EUnis-Vers-Sel (asbl)\u003C\/a\u003E","description":"\u003Cimg src = \u0022http:\/\/unis-vers-sel.net\/sites\/unis-vers-sel.net\/files\/Log_72ppp.png\u0022 align=\u0022left\u0022 width=\u002230\u0022\u003ESoyons dans le pr\u00e9sent, partageons notre temps!\u003Cbr \/\u003EActive members: 53","marker-color":"#0571BC"}},{"type":"Feature","geometry":{"type":"Point","coordinates":[5.0787091255188,49.894205882981]},"properties":{"title":"\u003Ca href=\u0022http:\/\/universlesel.communityforge.net\u0022\u003EUniverSel\u003C\/a\u003E","description":"\u003Cimg src = \u0022http:\/\/universlesel.communityforge.net\/sites\/univers-sel.be\/files\/sky_seldulac_logo.png\u0022 align=\u0022left\u0022 width=\u002230\u0022\u003EUniverSel Bertrix-Paliseul. Ardennais certes, mais solidaires! \u003Cbr \/\u003EActive members: 18","marker-color":"#0571BC"}},{"type":"Feature","geometry":{"type":"Point","coordinates":[7.2070313,44.1176627]},"properties":{"title":"\u003Ca href=\u0022http:\/\/valdeblore.communityforge.net\u0022\u003ELe Sel du M\u00e9l\u00e8ze\u003C\/a\u003E","description":"\u003Cimg src = \u0022http:\/\/valdeblore.communityforge.net\/system\/files\/logo_meleze.jpg\u0022 align=\u0022left\u0022 width=\u002230\u0022\u003Ecr\u00e9er du lien en montagne\u003Cbr \/\u003EActive members: 27","marker-color":"#0571BC"}},{"type":"Feature","geometry":{"type":"Point","coordinates":[1.3684845,48.7389839]},"properties":{"title":"\u003Ca href=\u0022http:\/\/viens.communityforge.net\u0022\u003Eviens.communityforge.net\u003C\/a\u003E","description":"\u003Cimg src = \u0022http:\/\/viens.communityforge.net\/system\/files\/image viens.png\u0022 align=\u0022left\u0022 width=\u002230\u0022\u003EMettez ici votre slogan\u003Cbr \/\u003EActive members: 1","marker-color":"#0571BC"}}]}