{"type":"FeatureCollection","features":[{"type":"Feature","geometry":{"type":"Point","coordinates":[5.183815,44.067689]},"properties":{"title":"\u003Ca href=\u0022http:\/\/avec.communityforge.net\u0022\u003Eavec.communityforge.net\u003C\/a\u003E","description":"Site de partages et de services du pi\u00e9mont du Ventoux\u003Cbr \/\u003EActive members: 6"}},{"type":"Feature","geometry":{"type":"Point","coordinates":[6.0240539,47.237829]},"properties":{"title":"\u003Ca href=\u0022http:\/\/besansel.fr\u0022\u003Ebesansel.fr\u003C\/a\u003E","description":"Pour changer, \u00e9changeons !\u003Cbr \/\u003EActive members: 23"}},{"type":"Feature","geometry":{"type":"Point","coordinates":[0,0]},"properties":{"title":"\u003Ca href=\u0022http:\/\/buechange.fr.nf\u0022\u003EBuechange solidaire\u003C\/a\u003E","description":"Syst\u00e8me d\u0027Echange Local\u003Cbr \/\u003EActive members: 5"}},{"type":"Feature","geometry":{"type":"Point","coordinates":[5.928,43.124228]},"properties":{"title":"\u003Ca href=\u0022http:\/\/coin-jeu.communityforge.net\u0022\u003ECoin-JEU Toulon\u003C\/a\u003E","description":"\u00ab Une alternative simple et conviviale \u00e0 l\u0027argent \u00bb\u003Cbr \/\u003EActive members: 16"}},{"type":"Feature","geometry":{"type":"Point","coordinates":[6.929273,46.989987]},"properties":{"title":"\u003Ca href=\u0022http:\/\/csrfv-bacasable.communityforge.net\u0022\u003EC-S-R-F-V.Bac a sable\u003C\/a\u003E","description":"Coordination Suisse Romande \u0026 France Voisine\u003Cbr \/\u003EActive members: 10"}},{"type":"Feature","geometry":{"type":"Point","coordinates":[6.929273,46.989987]},"properties":{"title":"\u003Ca href=\u0022http:\/\/csrfv.communityforge.net\u0022\u003EC-S-R-F-V\u003C\/a\u003E","description":"Coordination Suisse Romande \u0026 France Voisine\u003Cbr \/\u003EActive members: 15"}},{"type":"Feature","geometry":{"type":"Point","coordinates":[0,0]},"properties":{"title":"\u003Ca href=\u0022http:\/\/danecountytimebank.org\u0022\u003EDane County TimeBank\u003C\/a\u003E","description":"Neighbors Helping Neighbors\u003Cbr \/\u003EActive members: 82"}},{"type":"Feature","geometry":{"type":"Point","coordinates":[5.0316717623355,47.315108206886]},"properties":{"title":"\u003Ca href=\u0022http:\/\/dijon.communityforge.net\u0022\u003ESELlier du Dijonnais\u003C\/a\u003E","description":"Le lien est plus important que le bien\u003Cbr \/\u003EActive members: 18"}},{"type":"Feature","geometry":{"type":"Point","coordinates":[0,0]},"properties":{"title":"\u003Ca href=\u0022http:\/\/diktyoantallagonxanion.net\u0022\u003E\u0394\u03af\u03ba\u03c4\u03c5\u03bf \u0391\u03bd\u03c4\u03b1\u03bb\u03bb\u03b1\u03b3\u03ce\u03bd \u03a7\u03b1\u03bd\u03af\u03c9\u03bd\u003C\/a\u003E","description":"\u003Cbr \/\u003EActive members: 24"}},{"type":"Feature","geometry":{"type":"Point","coordinates":[0,0]},"properties":{"title":"\u003Ca href=\u0022http:\/\/dina-sel.net\u0022\u003EDinaSEL, le SEL de Dinant\u003C\/a\u003E","description":"Mettez du SEL dans votre vie !\u003Cbr \/\u003EActive members: 19"}},{"type":"Feature","geometry":{"type":"Point","coordinates":[2.357443,48.936181]},"properties":{"title":"\u003Ca href=\u0022http:\/\/dionyssel.org\u0022\u003EDionys\u0027SEL\u003C\/a\u003E","description":"Plus de lien, moins de biens !\u003Cbr \/\u003EActive members: 17"}},{"type":"Feature","geometry":{"type":"Point","coordinates":[0,0]},"properties":{"title":"\u003Ca href=\u0022http:\/\/estunsel.fr\u0022\u003EEstunSEL \u003C\/a\u003E","description":"Pour changer, \u00e9changeons !\u003Cbr \/\u003EActive members: 24"}},{"type":"Feature","geometry":{"type":"Point","coordinates":[0,0]},"properties":{"title":"\u003Ca href=\u0022http:\/\/justesel-mettet.be\u0022\u003ELe JusteSEL de Mettet\u003C\/a\u003E","description":"On a tous quelque chose \u00e0 partager\u003Cbr \/\u003EActive members: 19"}},{"type":"Feature","geometry":{"type":"Point","coordinates":[0,0]},"properties":{"title":"\u003Ca href=\u0022http:\/\/laclefdesel.fr\u0022\u003ELa Clef de SEL, Rochefort\u003C\/a\u003E","description":"Pour changer, \u00e9changeons... sans argent !\u003Cbr \/\u003EActive members: 22"}},{"type":"Feature","geometry":{"type":"Point","coordinates":[5,44]},"properties":{"title":"\u003Ca href=\u0022http:\/\/lebeausel.fr\u0022\u003ELe BeauSEL\u003C\/a\u003E","description":"SEL de Carpentras\u003Cbr \/\u003EActive members: 17"}},{"type":"Feature","geometry":{"type":"Point","coordinates":[0,0]},"properties":{"title":"\u003Ca href=\u0022http:\/\/macasel.be\u0022\u003EMacasel, SEL de Wavre\u003C\/a\u003E","description":"S\u0027entraider entre voisins\u003Cbr \/\u003EActive members: 75"}},{"type":"Feature","geometry":{"type":"Point","coordinates":[5.3816936000001,43.2981887]},"properties":{"title":"\u003Ca href=\u0022http:\/\/marsel.communityforge.net\u0022\u003EMarSEL \u003C\/a\u003E","description":" \u003E un SEL de Marseille \u003Cbr \/\u003EActive members: 29"}},{"type":"Feature","geometry":{"type":"Point","coordinates":[28.223595321178,36.44838382744]},"properties":{"title":"\u003Ca href=\u0022http:\/\/melekounia.gr\u0022\u003E\u039c\u03b5\u03bb\u03b5\u03ba\u03bf\u03cd\u03bd\u03b9\u003C\/a\u003E","description":"\u0395\u03bb\u03ac\u03c4\u03b5 \u03bd\u03b1 \u03b1\u03bd\u03c4\u03b1\u03bb\u03bb\u03ac\u03be\u03bf\u03c5\u03bc\u03b5 \u03bc\u03b5 \u0022\u03bc\u03b5\u03bb\u03b5\u03ba\u03bf\u03cd\u03bd\u03b9\u03b1\u0022...\u003Cbr \/\u003EActive members: 10"}},{"type":"Feature","geometry":{"type":"Point","coordinates":[0,0]},"properties":{"title":"\u003Ca href=\u0022http:\/\/mionsel.org\u0022\u003EMionSel - Sel de Mions\u003C\/a\u003E","description":"PRIVILEGIER LE LIEN PLUT\u00d4T QUE LE BIEN \u003Cbr \/\u003EActive members: 13"}},{"type":"Feature","geometry":{"type":"Point","coordinates":[173.0009842,-41.1240452]},"properties":{"title":"\u003Ca href=\u0022http:\/\/motueka.cosh.net.nz\u0022\u003Emotueka.cosh.net.nz\u003C\/a\u003E","description":"Community Share Motueka - Exchange with Hours or Talents\u003Cbr \/\u003EActive members: 6"}},{"type":"Feature","geometry":{"type":"Point","coordinates":[0,0]},"properties":{"title":"\u003Ca href=\u0022http:\/\/ourthsel.be\u0022\u003Eourthsel.be\u003C\/a\u003E","description":"Le SEL, c\u0027est choisir le lien au lieu des biens\u003Cbr \/\u003EActive members: 16"}},{"type":"Feature","geometry":{"type":"Point","coordinates":[4.5430358,50.1958462]},"properties":{"title":"\u003Ca href=\u0022http:\/\/phisel.be\u0022\u003Ephisel.be\u003C\/a\u003E","description":"Un monde sans SEL est sans saveur ! \u003Cbr \/\u003EActive members: 27"}},{"type":"Feature","geometry":{"type":"Point","coordinates":[149.569,17.535021]},"properties":{"title":"\u003Ca href=\u0022http:\/\/poly.communityforge.net\u0022\u003EPoly SEL\u003C\/a\u003E","description":"\u00c9changer et partager en Polyn\u00e9sie\u003Cbr \/\u003EActive members: 16"}},{"type":"Feature","geometry":{"type":"Point","coordinates":[-2.7960205078125,54.0432637943]},"properties":{"title":"\u003Ca href=\u0022http:\/\/realmexchange.co.uk\u0022\u003EThe Realm Exchange\u003C\/a\u003E","description":"The Flexible Online Trading System for Lancaster and Morecambe backed by Gold \u003Cbr \/\u003EActive members: 1"}},{"type":"Feature","geometry":{"type":"Point","coordinates":[-4.484288,48.397804]},"properties":{"title":"\u003Ca href=\u0022http:\/\/sel2mers.communityforge.net\u0022\u003Esel2mers.communityforge.net\u003C\/a\u003E","description":"un r\u00e9seau d\u0027\u00e9change de services,de biens,de savoir-faire SANS ARGENT !\u003Cbr \/\u003EActive members: 2"}},{"type":"Feature","geometry":{"type":"Point","coordinates":[1.501719,48.800542]},"properties":{"title":"\u003Ca href=\u0022http:\/\/selalternative.communityforge.net\u0022\u003ESel\u0027Alternative\u003C\/a\u003E","description":"L\u0027espace des alternatives et de l\u0027entraide\u003Cbr \/\u003EActive members: 13"}},{"type":"Feature","geometry":{"type":"Point","coordinates":[-0.53113847224267,47.471924965325]},"properties":{"title":"\u003Ca href=\u0022http:\/\/selangevin.fr\u0022\u003ELe SEL Angevin\u003C\/a\u003E","description":"Pour changer \u00e9changeons\u003Cbr \/\u003EActive members: 38"}},{"type":"Feature","geometry":{"type":"Point","coordinates":[5.808612,50.406843]},"properties":{"title":"\u003Ca href=\u0022http:\/\/selardenne.be\u0022\u003ESel\u0027Ardenne\u003C\/a\u003E","description":"Pour changer..., Echangeons !\u003Cbr \/\u003EActive members: 17"}},{"type":"Feature","geometry":{"type":"Point","coordinates":[5.500031,0]},"properties":{"title":"\u003Ca href=\u0022http:\/\/selaviegaume.be\u0022\u003ESELavie Gaume\u003C\/a\u003E","description":"Syst\u00e8me d\u2019Echange Local en Gaume\u003Cbr \/\u003EActive members: 14"}},{"type":"Feature","geometry":{"type":"Point","coordinates":[5.67584,50.47318]},"properties":{"title":"\u003Ca href=\u0022http:\/\/sel-aywaille.org\u0022\u003ELe Sel-Aywaille\u003C\/a\u003E","description":"Plateforme d\u0027Echange: Pour celles et ceux chez qui l\u0027entraide est une volont\u00e9 ind\u00e9niable... \u003Cbr \/\u003EActive members: 4"}},{"type":"Feature","geometry":{"type":"Point","coordinates":[5.3448617,49.9123264]},"properties":{"title":"\u003Ca href=\u0022http:\/\/sel-chevigny.be\u0022\u003Esel-chevigny.be\u003C\/a\u003E","description":"On a tous quelque chose \u00e0 partager\u003Cbr \/\u003EActive members: 1"}},{"type":"Feature","geometry":{"type":"Point","coordinates":[4.659274,46.434135]},"properties":{"title":"\u003Ca href=\u0022http:\/\/selclunisois.communityforge.net\u0022\u003ESelclunisois\u003C\/a\u003E","description":"Le SEL ne s\u0027use que si l\u0027on ne s\u0027en sert pas ......\u003Cbr \/\u003EActive members: 72"}},{"type":"Feature","geometry":{"type":"Point","coordinates":[4.835659,45.764043]},"properties":{"title":"\u003Ca href=\u0022http:\/\/selconaissances.communityforge.net\u0022\u003ESel Co-Naissances\u003C\/a\u003E","description":"Faire \u00e9merger les talents, les projets, et faciliter leur concr\u00e9tisation\u003Cbr \/\u003EActive members: 2"}},{"type":"Feature","geometry":{"type":"Point","coordinates":[0,0]},"properties":{"title":"\u003Ca href=\u0022http:\/\/selcoupdepouce.be\u0022\u003ESEL coup de pouce\u003C\/a\u003E","description":"Syst\u00e8me d\u0027Echange Local - \u00e9changer, c\u0027est changer !\u003Cbr \/\u003EActive members: 171"}},{"type":"Feature","geometry":{"type":"Point","coordinates":[5.27212,45.597108]},"properties":{"title":"\u003Ca href=\u0022http:\/\/seldebourgoinjallieu.fr\u0022\u003ESEL de Bourgoin Jallieu\u003C\/a\u003E","description":"Mettez un peu de SEL dans votre vie ...\u003Cbr \/\u003EActive members: 44"}},{"type":"Feature","geometry":{"type":"Point","coordinates":[0.380774,49.755601]},"properties":{"title":"\u003Ca href=\u0022http:\/\/sel-de-caux.fr\u0022\u003ESel De Caux\u003C\/a\u003E","description":"Pour changer, \u00e9changeons\u003Cbr \/\u003EActive members: 15"}},{"type":"Feature","geometry":{"type":"Point","coordinates":[2.083165,49.029829]},"properties":{"title":"\u003Ca href=\u0022http:\/\/seldecergypontoise.fr\u0022\u003ESEL Cergy-Pontoise\u003C\/a\u003E","description":"\u003Cbr \/\u003EActive members: 176"}},{"type":"Feature","geometry":{"type":"Point","coordinates":[2.575986,44.349389]},"properties":{"title":"\u003Ca href=\u0022http:\/\/selderodez.communityforge.net\u0022\u003ESEL de Rodez\u003C\/a\u003E","description":"Syst\u00e8me d\u0027Echange Local du ruth\u00e9nois\u003Cbr \/\u003EActive members: 8"}},{"type":"Feature","geometry":{"type":"Point","coordinates":[1.1,49.44]},"properties":{"title":"\u003Ca href=\u0022http:\/\/seldeseine.eu\u0022\u003ESEL de Seine\u003C\/a\u003E","description":"Pour changer, \u00e9changeons ! Car le lien est plus important que le bien.\u003Cbr \/\u003EActive members: 55"}},{"type":"Feature","geometry":{"type":"Point","coordinates":[0.804935,44.397248]},"properties":{"title":"\u003Ca href=\u0022http:\/\/seldicietdailleurs.communityforge.net\u0022\u003ESel d\u0027Ici et d\u0027Ailleurs\u003C\/a\u003E","description":"Mettez ici votre slogan\u003Cbr \/\u003EActive members: 2"}},{"type":"Feature","geometry":{"type":"Point","coordinates":[0,0]},"properties":{"title":"\u003Ca href=\u0022http:\/\/seldille.org\u0022\u003ESEL d\u0027Ille\u003C\/a\u003E","description":"\u003Cbr \/\u003EActive members: 1"}},{"type":"Feature","geometry":{"type":"Point","coordinates":[7.49267578125,43.771093817757]},"properties":{"title":"\u003Ca href=\u0022http:\/\/selducitron.communityforge.net\u0022\u003ESEL du Citron\u003C\/a\u003E","description":"Echangeons des Zestes de Citron - et de convivialit\u00e9 !\u003Cbr \/\u003EActive members: 52"}},{"type":"Feature","geometry":{"type":"Point","coordinates":[6.142161,46.1983922]},"properties":{"title":"\u003Ca href=\u0022http:\/\/seldulac.ch\u0022\u003ESELduLac\u003C\/a\u003E","description":"Echangeons, pour changer !\u003Cbr \/\u003EActive members: 38"}},{"type":"Feature","geometry":{"type":"Point","coordinates":[0.1922334,48]},"properties":{"title":"\u003Ca href=\u0022http:\/\/seldumaine.fr\u0022\u003ESEL du Maine\u003C\/a\u003E","description":"Un Syst\u00e8me d\u0027Echanges Local sarthois (72)\u003Cbr \/\u003EActive members: 71"}},{"type":"Feature","geometry":{"type":"Point","coordinates":[4.52156,50.712636]},"properties":{"title":"\u003Ca href=\u0022http:\/\/seleri.be\u0022\u003ESELeri, le SEL de Rixensart, La Hulpe et environs\u003C\/a\u003E","description":"Pour changer, \u00e9changeons !\u003Cbr \/\u003EActive members: 114"}},{"type":"Feature","geometry":{"type":"Point","coordinates":[5.568372,0]},"properties":{"title":"\u003Ca href=\u0022http:\/\/selesneux.be\u0022\u003ESELesneux\u003C\/a\u003E","description":"Les feuilles font l\u0027arbre\u003Cbr \/\u003EActive members: 70"}},{"type":"Feature","geometry":{"type":"Point","coordinates":[6.95645,47.22417]},"properties":{"title":"\u003Ca href=\u0022http:\/\/sel-fm.ch\u0022\u003ESEL Franches-Montagnes\u003C\/a\u003E","description":"... allez aux pives...\u003Cbr \/\u003EActive members: 52"}},{"type":"Feature","geometry":{"type":"Point","coordinates":[7.2046,46.6019]},"properties":{"title":"\u003Ca href=\u0022http:\/\/seljogne.ch\u0022\u003ESEL de la vall\u00e9e de la Jogne\u003C\/a\u003E","description":"Donner - Recevoir - Partager - Se rencontrer\u003Cbr \/\u003EActive members: 26"}},{"type":"Feature","geometry":{"type":"Point","coordinates":[0,0]},"properties":{"title":"\u003Ca href=\u0022http:\/\/sel.marche.be\u0022\u003Emarch\u0027SEL\u003C\/a\u003E","description":"\u003Cbr \/\u003EActive members: 87"}},{"type":"Feature","geometry":{"type":"Point","coordinates":[0,0]},"properties":{"title":"\u003Ca href=\u0022http:\/\/selpowaimes.be\u0022\u003Eselpowaimes.be\u003C\/a\u003E","description":"Les rimes font le po\u00e8me\u003Cbr \/\u003EActive members: 39"}},{"type":"Feature","geometry":{"type":"Point","coordinates":[0,0]},"properties":{"title":"\u003Ca href=\u0022http:\/\/selpyreneen.org\u0022\u003ESEL Pyr\u00e9n\u00e9en\u003C\/a\u003E","description":"Pour changer, Echangeons\u003Cbr \/\u003EActive members: 11"}},{"type":"Feature","geometry":{"type":"Point","coordinates":[172.4780765,-43.6423962]},"properties":{"title":"\u003Ca href=\u0022http:\/\/selwyntimebank.net.nz\u0022\u003ESelwyn Timebank\u003C\/a\u003E","description":"Time Banking refers to a pattern of reciprocal service exchange which uses units of time as currency.\u003Cbr \/\u003EActive members: 25"}},{"type":"Feature","geometry":{"type":"Point","coordinates":[7.4072299,47.7478404]},"properties":{"title":"\u003Ca href=\u0022http:\/\/sourisel68.fr\u0022\u003Esouri\u0027SEL \u003C\/a\u003E","description":"Syst\u00e8me Echange Local\u003Cbr \/\u003EActive members: 16"}},{"type":"Feature","geometry":{"type":"Point","coordinates":[6.929273,46.989987]},"properties":{"title":"\u003Ca href=\u0022http:\/\/tcsrfv.communityforge.net\u0022\u003EC-S-R-F-V\u003C\/a\u003E","description":"Coordination Suisse Romande \u0026 France Voisine\u003Cbr \/\u003EActive members: 16"}},{"type":"Feature","geometry":{"type":"Point","coordinates":[0,0]},"properties":{"title":"\u003Ca href=\u0022http:\/\/tousensel.com\u0022\u003ETous en SEL\u003C\/a\u003E","description":"Le SEL de Maisons-Laffitte, Mesnil Le Roi, Sartrouville\u003Cbr \/\u003EActive members: 47"}},{"type":"Feature","geometry":{"type":"Point","coordinates":[0,0]},"properties":{"title":"\u003Ca href=\u0022http:\/\/unis-vers-sel.net\u0022\u003EUnis-Vers-Sel (asbl)\u003C\/a\u003E","description":"Soyons dans le pr\u00e9sent, partageons notre temps!\u003Cbr \/\u003EActive members: 53"}},{"type":"Feature","geometry":{"type":"Point","coordinates":[5.0787091255188,49.894205882981]},"properties":{"title":"\u003Ca href=\u0022http:\/\/universlesel.communityforge.net\u0022\u003EUniverSel\u003C\/a\u003E","description":"UniverSel Bertrix-Paliseul. Ardennais certes, mais solidaires! \u003Cbr \/\u003EActive members: 19"}},{"type":"Feature","geometry":{"type":"Point","coordinates":[0,0]},"properties":{"title":"\u003Ca href=\u0022http:\/\/westielets.org.uk\u0022\u003EWestie LETS\u003C\/a\u003E","description":"\u003Cbr \/\u003EActive members: 8"}}]}
