[
 {
  "latitude": 44.612486, 
  "longitude": -63.619031, 
  "title": "Chebucto Connections Timebank", 
  "url": "http://community.timebanks.org/timebanks/chebucto-connections-timebank"
 }, 
 {
  "latitude": 49.261041, 
  "longitude": -123.054288,
  "title": "Volunteering can be two way street", 
  "url": "http://community.timebanks.org/node/791" 
 },
 { "latitude": 39.322847, "longitude": -82.09728, "title": "Athens Time Exchange", "url": "http://community.timebanks.org/node/797" },
 { "latitude": 33.965235, "longitude": -83.388308, "title": "Athens Time Bank", "url": "http://community.timebanks.org/node/799" },
 { "latitude": 46.577191, "longitude": -90.89707, "title": "TimeTraders North and the Washburn Area Timebank", "url": "http://community.timebanks.org/node/835" },
 { "latitude": 38.440879, "longitude": -122.7152, "title": "Sonoma County Timebank", "url": "http://community.timebanks.org/timebanks/sonoma-county-timebank" },
 { "latitude": 48.610625, "longitude": -118.060958, "title": "Upper Columbia Time Exchange", "url": "http://community.timebanks.org/node/837" },
 { "latitude": 36.760693, "longitude": -121.765735, "title": "Mendo Time Bank", "url": "http://community.timebanks.org/node/838" },
 { "latitude": 47.224876, "longitude": -120.99286, "title": "Upper Kittitas Timebank", "url": "http://community.timebanks.org/node/846" },
 { "latitude": 33.276539, "longitude": -112.18717, "title": "Phoenix TimeBank", "url": "http://community.timebanks.org/node/851" },
 { "latitude": 40.142022, "longitude": -75.173941, "title": "Montgomery County PA", "url": "http://community.timebanks.org/node/853" },
 { "latitude": 44.414056, "longitude": -69.751913, "title": "Time Initiative of Maine", "url": "http://community.timebanks.org/timebanks/time-initiative-maine" },
 { "latitude": 44.257576, "longitude": -72.574716, "title": "Onion River Exchange", "url": "http://community.timebanks.org/node/863" },
 { "latitude": 40.057825, "longitude": -77.521997, "title": "Shippensburg Area Time Bank", "url": "http://community.timebanks.org/node/866" },
 { "latitude": 42.8548, "longitude": -72.55987, "title": "Brattleboro Time Trade", "url": "http://community.timebanks.org/timebanks/brattleboro-time-trade" },
 { "latitude": 26.62365, "longitude": -81.8727, "title": "SPIRE", "url": "http://community.timebanks.org/node/869" },
 { "latitude": 43.195198, "longitude": -83.312719, "title": "Community House of Hope Timebank", "url": "http://community.timebanks.org/node/880" },
 { "latitude": 41.184072, "longitude": -74.378512, "title": "Time Bank of West Milford", "url": "http://community.timebanks.org/node/883" },
 { "latitude": 29.745118, "longitude": -95.365417, "title": "Bread of Life, Inc.", "url": "http://community.timebanks.org/node/884" },
 { "latitude": 42.624015, "longitude": -70.67552, "title": "Cape Ann TimeBank", "url": "http://community.timebanks.org/timebanks/cape-ann-timebank" },
 { "latitude": 42.641465, "longitude": -72.28019, "title": "North Quabbin Time Bank", "url": "http://community.timebanks.org/node/893" },
 { "latitude": 43.342352, "longitude": -90.377175, "title": "Driftless Community Time Bank", "url": "http://community.timebanks.org/node/900" },
 { "latitude": 43.619744, "longitude": -116.197436, "title": "TimeBank Idaho", "url": "http://community.timebanks.org/node/901" },
 { "latitude": 49.871894, "longitude": -97.147033, "title": "Winnipeg Time Bank", "url": "http://community.timebanks.org/node/902" },
 { "latitude": 41.311183, "longitude": -72.892816, "title": "SHARE Haven Time Bank", "url": "http://community.timebanks.org/node/907" },
 { "latitude": 42.186542, "longitude": -122.693327, "title": "SOTB.org", "url": "http://community.timebanks.org/node/908" },
 { "latitude": 37.728579, "longitude": -122.179353, "title": "Sobrante Park Time Banking", "url": "http://community.timebanks.org/node/912" },
 { "latitude": 42.702128, "longitude": -84.41946, "title": "Meridian TimeBank", "url": "http://community.timebanks.org/node/915" },
 { "latitude": -37.397295, "longitude": 175.84833, "title": "Waihi Time Bank", "url": "http://community.timebanks.org/node/916" },
 { "latitude": 43.276217, "longitude": -71.80684, "title": "Warner Area TimeBank", "url": "http://community.timebanks.org/node/920" },
 { "latitude": -46.114499, "longitude": 168.933563, "title": "Hokonui TimeBank, New Zealand", "url": "http://community.timebanks.org/node/923" },
 { "latitude": 44.008598, "longitude": -73.169601, "title": "Middlebury Time Bank", "url": "http://community.timebanks.org/node/924" },
 { "latitude": 32.910013, "longitude": -96.793431, "title": "In Unity Exchange Timebank", "url": "http://community.timebanks.org/node/931" },
 { "latitude": 33.016928, "longitude": -116.846046, "title": "Tierrasanta Village of San Diego", "url": "http://community.timebanks.org/node/933" },
 { "latitude": 41.704046, "longitude": -70.037906, "title": "Cape Cod TimeBank", "url": "http://community.timebanks.org/node/934" },
 { "latitude": 38.638452, "longitude": -121.267384, "title": "Fair Oaks Energy Cafe, Timebank", "url": "http://community.timebanks.org/node/935" },
 { "latitude": 40.0263, "longitude": -75.312867, "title": "Bryn Mawr College TimeBank", "url": "http://community.timebanks.org/node/938" },
 { "latitude": 39.916078, "longitude": -75.40251, "title": "TimeBank Media", "url": "http://community.timebanks.org/node/946" },
 { "latitude": 40.693376, "longitude": -75.471156, "title": "Community Exchange", "url": "http://community.timebanks.org/node/948" },
 { "latitude": -37.955415, "longitude": 176.992734, "title": "Eastbay TimeBank", "url": "http://community.timebanks.org/node/949" },
 { "latitude": 42.996804, "longitude": -76.2177, "title": "Syracuse Time Bank", "url": "http://community.timebanks.org/node/952" },
 { "latitude": 38.917188, "longitude": -77.0178, "title": "DC TimeBank", "url": "http://community.timebanks.org/node/953" },
 { "latitude": -43.53062, "longitude": 172.737691, "title": "New Brighton Timebank, New Zealand", "url": "http://community.timebanks.org/node/956" },
 { "latitude": 39.617932, "longitude": -75.500149, "title": "Patriot Time Exchange", "url": "http://community.timebanks.org/node/958" },
 { "latitude": 42.871527, "longitude": -76.984096, "title": "Geneva Exchange", "url": "http://community.timebanks.org/node/960" },
 { "latitude": 26.984486, "longitude": -82.14859, "title": "SITWALL MOVEMENT", "url": "http://community.timebanks.org/node/961" },
 { "latitude": 42.933077, "longitude": -85.65435, "title": "Timebank Grand Rapids", "url": "http://community.timebanks.org/node/962" },
 { "latitude": 45.65, "longitude": -111.17, "title": "Gallatin Time Exchange", "url": "http://community.timebanks.org/node/965" },
 { "latitude": 36.760693, "longitude": -121.765735, "title": "South Bay LA Time Bank", "url": "http://community.timebanks.org/node/968" },
 { "latitude": 39.210696, "longitude": -76.847229, "title": "Columbia Community Exchange of Howard County", "url": "http://community.timebanks.org/timebanks/columbia-community-exchange-howard-county" },
 { "latitude": 43.687932, "longitude": -116.323771, "title": "hourexchangeboise", "url": "http://community.timebanks.org/node/993" },
 { "latitude": 46.871178, "longitude": -122.67573, "title": "HOUR 4  HOUR TIME EXCHANGE", "url": "http://community.timebanks.org/node/994" },
 { "latitude": 41.980411, "longitude": -91.663374, "title": "The Tapestry", "url": "http://community.timebanks.org/node/1001" },
 { "latitude": 41.148308, "longitude": -81.355723, "title": "Crooked River Alliance of TimeBanks", "url": "http://community.timebanks.org/node/1007" },
 { "latitude": 40.131503, "longitude": -75.51348, "title": "Phoenixville Area Time Bank", "url": "http://community.timebanks.org/node/1009" },
 { "latitude": 43.40328, "longitude": -88.18026, "title": "Kettle Moraine Community Time Bank", "url": "http://community.timebanks.org/node/1011" },
 { "latitude": -40.760987, "longitude": 175.14708, "title": "Otaki Timebank", "url": "http://community.timebanks.org/timebanks/otaki-timebank" },
 { "latitude": 36.921515, "longitude": -76.30949, "title": "CareBank of Hampton Roads Area, VA", "url": "http://community.timebanks.org/timebanks/carebank-hampton-roads-area-va" },
 { "latitude": 44.726356, "longitude": -70.093073, "title": "Farmington Exchange Circle", "url": "http://community.timebanks.org/node/1028" },
 { "latitude": 40.751278, "longitude": -111.871555, "title": "Utah Time Exchange", "url": "http://community.timebanks.org/node/1033" },
 { "latitude": 41.985263, "longitude": -87.692783, "title": "The Chicago Time Exchange", "url": "http://community.timebanks.org/node/1038" },
 { "latitude": 29.956665, "longitude": -90.107394, "title": "NOLA TimeBank", "url": "http://community.timebanks.org/node/1322" },
 { "latitude": -35.116942, "longitude": 173.266751, "title": "Kaitaia  TimeBank", "url": "http://community.timebanks.org/timebanks/kaitaia-timebank" },
 { "latitude": 40.801627, "longitude": -74.996558, "title": "TimeBank of Warren County", "url": "http://community.timebanks.org/node/1326" },
 { "latitude": 43.095447, "longitude": -73.50177, "title": "Battenkill Time Traders", "url": "http://community.timebanks.org/node/1327" },
 { "latitude": 42.681491, "longitude": -73.79168, "title": "Capital Region TimeBanks", "url": "http://community.timebanks.org/timebanks/capital-region-timebanks" },
 { "latitude": 30.410486, "longitude": -91.03768, "title": "Spurt Time Bank", "url": "http://community.timebanks.org/node/1330" },
 { "latitude": -43.444859, "longitude": 172.632359, "title": "Belfast TimeBank", "url": "http://community.timebanks.org/timebanks/belfast-timebank" },
 { "latitude": -40.923301, "longitude": 174.994552, "title": "Kapiti Timebank", "url": "http://community.timebanks.org/node/1332" },
 { "latitude": 19.518912, "longitude": -155.003939, "title": "East Hawaii Community Timebank", "url": "http://community.timebanks.org/node/1334" },
 { "latitude": 40.112127, "longitude": -88.245492, "title": "Champaign County TimeBank", "url": "http://community.timebanks.org/timebanks/champaign-county-timebank" },
 { "latitude": 47.613704, "longitude": -122.344457, "title": "SWEL TimeBank", "url": "http://community.timebanks.org/timebanks/swel-timebank" },
 { "latitude": 41.651807, "longitude": -83.706735, "title": "Midwestern Artisan Collective", "url": "http://community.timebanks.org/timebanks/midwestern-artisan-collective" },
 { "latitude": 59.641181, "longitude": -151.550732, "title": "AHA Time Bank (Alaskans Helping Alaskans)", "url": "http://community.timebanks.org/timebanks/aha-time-bank-alaskans-helping-alaskans" },
 { "latitude": 39.957168, "longitude": -86.279731, "title": "Community Connections", "url": "http://community.timebanks.org/timebanks/community-connections" },
 { "latitude": 42.347662, "longitude": -83.077214, "title": "Woodbridge Time Exchange", "url": "http://community.timebanks.org/timebanks/woodbridge-time-exchange" },
 { "latitude": -40.872224, "longitude": 175.019766, "title": "Waikanae Timebank", "url": "http://community.timebanks.org/timebanks/waikanae-timebank" },
 { "latitude": 61.199586, "longitude": -149.882258, "title": "Anchorage TimeBank", "url": "http://community.timebanks.org/timebanks/anchorage-timebank" },
 { "latitude": -41.312255, "longitude": 174.777664, "title": "Wellington Timebank", "url": "http://community.timebanks.org/timebanks/wellington-south-time-bank" },
 { "latitude": -43.542415, "longitude": 172.614862, "title": "Addington TimeBank", "url": "http://community.timebanks.org/timebanks/addington-timebank" },
 { "latitude": 37.699387, "longitude": -122.065179, "title": "Eastbay Area Reciprocity Network", "url": "http://community.timebanks.org/timebanks/eastbay-area-reciprocity-network-earn" },
 { "latitude": 34.8555, "longitude": -119.170041, "title": "CONNECT-Volunteers", "url": "http://community.timebanks.org/timebanks/connect-volunteers" },
 { "latitude": 43.136729, "longitude": -70.93192, "title": "Great Bay Timebank", "url": "http://community.timebanks.org/timebanks/great-bay-timebank" },
 { "latitude": 43.300436, "longitude": -91.789922, "title": "People\'s Time Exchange", "url": "http://community.timebanks.org/timebanks/peoples-time-exchange" },
 { "latitude": 41.49662, "longitude": -81.597559, "title": "South Overlook Time Bank", "url": "http://community.timebanks.org/timebanks/south-overlook-time-bank" },
 { "latitude": 32.388322, "longitude": -93.830953, "title": "Shreveport Bossier Time Bank", "url": "http://community.timebanks.org/timebanks/shreveport-bossier-time-bank" },
 { "latitude": 32.044115, "longitude": -81.126753, "title": "LowCountry TimeBank", "url": "http://community.timebanks.org/timebanks/lowcountry-timebank" },
 { "latitude": 46.301928, "longitude": -79.456725, "title": "First Ontario TimeBank", "url": "http://community.timebanks.org/timebanks/first-ontario-timebank" },
 { "latitude": -39.06737, "longitude": 174.052669, "title": "Taranaki Timebank", "url": "http://community.timebanks.org/timebanks/timebank-taranaki" },
 { "latitude": 40.772382, "longitude": -73.988334, "title": "The Beacon Time Bank", "url": "http://community.timebanks.org/timebanks/beacon-time-bank" },
 { "latitude": -34.904655, "longitude": -54.956638, "title": "Banco de Tiempo Maldonado", "url": "http://community.timebanks.org/timebanks/banco-de-tiempo-maldonado" },
 { "latitude": 47.839864, "longitude": -120.009456, "title": "Lake Chelan Community TimeBank", "url": "http://community.timebanks.org/timebanks/lake-chelan-community-timebank" },
 { "latitude": 43.421595, "longitude": -80.456619, "title": "WRTE", "url": "http://community.timebanks.org/timebanks/wrte" },
 { "latitude": -41.176756, "longitude": 174.961003, "title": "Taita Time Bank", "url": "http://community.timebanks.org/timebanks/taita-time-bank" },
 { "latitude": 39.484513, "longitude": -119.798618, "title": "Reno Timebank", "url": "http://community.timebanks.org/timebanks/reno-timebank" },
 { "latitude": 47.155509, "longitude": -67.933095, "title": "St John Valley TimeBank", "url": "http://community.timebanks.org/timebanks/st-john-valley-timebank" },
 { "latitude": 43.108746, "longitude": -77.441803, "title": "Fairport/Perinton Community Exchange@S.O.F.I.", "url": "http://community.timebanks.org/timebanks/fairportperinton-community-exchangesofi" },
 { "latitude": -37.800671, "longitude": 174.87121, "title": "Timebank Raglan", "url": "http://community.timebanks.org/timebanks/timebank-raglan" },
 { "latitude": -45.876791, "longitude": 170.501876, "title": "Dunedin TimeBank", "url": "http://community.timebanks.org/timebanks/dunedin-timebank" },
 { "latitude": 48.705079, "longitude": -122.901768, "title": "IsleShare.org", "url": "http://community.timebanks.org/timebanks/isleshare" },
 { "latitude": 30.260354, "longitude": -97.714515, "title": "Austin Dancers Time Exchange Network", "url": "http://community.timebanks.org/timebanks/austin-dancers-time-exchange-network" },
 { "latitude": -43.578293, "longitude": 172.769421, "title": "Bridge2Rocks TimeBank", "url": "http://community.timebanks.org/timebanks/bridge2rocks-timebank-christchurch" },
 { "latitude": 33.858456, "longitude": -84.005264, "title": "Gwinnett Gives", "url": "http://community.timebanks.org/timebanks/gwinnett-gives" },
 { "latitude": -41.109106, "longitude": 175.103494, "title": "TimeBank Upper Hutt", "url": "http://community.timebanks.org/timebanks/timebank-upper-hutt" },
 { "latitude": 47.597193, "longitude": -120.648073, "title": "Leavenworth Timebank", "url": "http://community.timebanks.org/timebanks/leavenworth-timebank" },
 { "latitude": 39.286237, "longitude": -76.587176, "title": "LetsBMore", "url": "http://community.timebanks.org/timebanks/letsbmore" },
 { "latitude": -40.068868, "longitude": 175.377999, "title": "Rangitikei Timebank", "url": "http://community.timebanks.org/timebanks/rangitikei-timebank" },
 { "latitude": 27.336973, "longitude": -82.51506, "title": "Common Wealth Time Bank", "url": "http://community.timebanks.org/timebanks/common-wealth-time-bank" },
 { "latitude": 33.981024, "longitude": -117.37156, "title": "Riverside Time Bank", "url": "http://community.timebanks.org/timebanks/riverside-time-bank" },
 { "latitude": -36.909406, "longitude": 174.798031, "title": "Green Living Time Bank", "url": "http://community.timebanks.org/timebanks/green-living-time-bank" },
 { "latitude": 38.96516, "longitude": -77.06737, "title": "Timebank of Timebanks", "url": "http://community.timebanks.org/timebanks/timebank-timebanks" },
 { "latitude": 34.853933, "longitude": -120.418145, "title": "Santa Maria Time Bank", "url": "http://community.timebanks.org/timebanks/santa-maria-time-bank" },
 { "latitude": 34.101608, "longitude": -118.05606, "title": "Temple City Time Exchange", "url": "http://community.timebanks.org/timebanks/temple-city-time-exchange" },
 { "latitude": 37.044233, "longitude": -88.59046, "title": "Purchase Area KY Time Bank", "url": "http://community.timebanks.org/timebanks/purchase-area-ky-time-bank" },
 { "latitude": 40.298807, "longitude": -74.028518, "title": "Monmouth", "url": "http://community.timebanks.org/timebanks/monmouth" },
 { "latitude": -37.786303, "longitude": 175.281149, "title": "Waikato TimeBank", "url": "http://community.timebanks.org/timebanks/hamilton-timebank" },
 { "latitude": 33.069837, "longitude": -117.250498, "title": "The Care Village Community Exchange", "url": "http://community.timebanks.org/timebanks/care-village-community-exchange" },
 { "latitude": 43.075784, "longitude": -88.77595, "title": "Sustain Jefferson Time Bank", "url": "http://community.timebanks.org/timebanks/sustain-jefferson-time-bank" },
 { "latitude": -43.380467, "longitude": 172.658837, "title": "timeXchange Waimakariri", "url": "http://community.timebanks.org/timebanks/timexchange-waimakariri" },
 { "latitude": 35.855552, "longitude": -79.029804, "title": "Governors Club", "url": "http://community.timebanks.org/timebanks/governors-club" },
 { "latitude": 39.189462, "longitude": -94.681092, "title": "Park University Timebank", "url": "http://community.timebanks.org/timebanks/park-university-timebank" },
 { "latitude": 36.2059, "longitude": -105.852227, "title": "Embudo Valley Time Bank", "url": "http://community.timebanks.org/timebanks/embudo-valley-time-bank" },
 { "latitude": 38.147266, "longitude": -79.074038, "title": "hOUR Economy", "url": "http://community.timebanks.org/timebanks/hour-economy" },
 { "latitude": 30.067835, "longitude": -95.486094, "title": "Spring Area Timebank", "url": "http://community.timebanks.org/timebanks/spring-area-timebank" },
 { "latitude": 44.807311, "longitude": -91.504223, "title": "Chippewa Valley Timebank", "url": "http://community.timebanks.org/timebanks/chippewa-valley-timebank" },
 { "latitude": 40.163301, "longitude": -111.610647, "title": "Social Commerce Network", "url": "http://community.timebanks.org/timebanks/social-commerce-network" },
 { "latitude": -41.215627, "longitude": 174.892448, "title": "The Hutt Timebank", "url": "http://community.timebanks.org/timebanks/hutt-south-timebank" },
 { "latitude": 39.681687, "longitude": -104.88338, "title": "Colorado Interfaith Time Bank", "url": "http://community.timebanks.org/timebanks/colorado-interfaith-time-bank" },
 { "latitude": 39.385717, "longitude": -77.146621, "title": "Mt. Airy, MD Community Time Bank", "url": "http://community.timebanks.org/timebanks/mt-airy-md-community-time-bank" },
 { "latitude": 19.526845, "longitude": -155.9215, "title": "Big Island Timebank", "url": "http://community.timebanks.org/timebanks/big-island-timebank" },
 { "latitude": 40.788472, "longitude": -96.70516, "title": "Lincoln Community Timebank", "url": "http://community.timebanks.org/timebanks/lincoln-community-timebank" },
 { "latitude": -40.807708, "longitude": 175.600073, "title": "Wairarapa Timebank", "url": "http://community.timebanks.org/timebanks/wairarapa-timebank" },
 { "latitude": 44.110806, "longitude": -88.73155, "title": "Winnebago County TimeBank", "url": "http://community.timebanks.org/timebanks/winnebago-county-timebank" },
 { "latitude": 26.591344, "longitude": -80.117154, "title": "Palm Beach County TimeBank", "url": "http://community.timebanks.org/timebanks/palm-beach-county-timebank" },
 { "latitude": 40.404826, "longitude": -104.723781, "title": "Northern Colorado Time Bank", "url": "http://community.timebanks.org/timebanks/northern-colorado-time-bank" },
 { "latitude": 36.945073, "longitude": -80.311179, "title": "Floyd County Time Bank", "url": "http://community.timebanks.org/timebanks/floyd-county-time-bank" },
 { "latitude": 43.650056, "longitude": -79.497797, "title": "C/S Timebank", "url": "http://community.timebanks.org/timebanks/cs-timebank" },
 { "latitude": 44.407132, "longitude": -79.65052, "title": "Barrie Community Time Bank", "url": "http://community.timebanks.org/timebanks/barrie-community-time-bank" },
 { "latitude": 41.460174, "longitude": -87.059873, "title": "Northwest Indiana Timebank", "url": "http://community.timebanks.org/timebanks/northwest-indiana-timebank" },
 { "latitude": 43.435625, "longitude": -103.484643, "title": "Black Hills Time Banking", "url": "http://community.timebanks.org/timebanks/black-hills-time-banking" },
 { "latitude": 43.786532, "longitude": -88.453595, "title": "Lake Winnebago Time Bank Inc", "url": "http://community.timebanks.org/timebanks/lake-winnebago-time-bank-inc" },
 { "latitude": 39.990843, "longitude": -75.305013, "title": "PYM Friendly Housholds Timebank", "url": "http://community.timebanks.org/timebanks/pym-friendly-housholds-timebank" },
 { "latitude": 49.64481, "longitude": 11.23172, "title": "IWG Timebank", "url": "http://community.timebanks.org/timebanks/iwg-timebank" },
 { "latitude": 47.613704, "longitude": -122.344457, "title": "CD Timebank", "url": "http://community.timebanks.org/timebanks/cd-timebank" },
 { "latitude": -45.226476, "longitude": 170.758014, "title": "Waitaki TimeBank", "url": "http://community.timebanks.org/timebanks/timebank-waitaki" },
 { "latitude": 29.464261, "longitude": -98.535222, "title": "OUR Village", "url": "http://community.timebanks.org/timebanks/our-village" },
 { "latitude": 42.369717, "longitude": -71.071104, "title": "HULTplaza", "url": "http://community.timebanks.org/timebanks/hultplaza" },
 { "latitude": 41.077224, "longitude": -74.804047, "title": "Northwest New Jersey TimeBank", "url": "http://community.timebanks.org/timebanks/northwest-new-jersey-timebank" },
 { "latitude": -43.171124, "longitude": 172.780674, "title": "TimeBank Hurunui", "url": "http://community.timebanks.org/timebanks/timebank-hurunui" },
 { "latitude": 38.963298, "longitude": -77.077322, "title": "Demonstration Site for CW", "url": "http://community.timebanks.org/timebanks/test-site-community-weaver-timebank" },
 { "latitude": 39.754881, "longitude": -75.561302, "title": "Delaware Hour Exchange", "url": "http://community.timebanks.org/timebanks/delaware-hour-exchange" },
 { "latitude": 43.242222, "longitude": -95.154919, "title": "Estherville Time Bank", "url": "http://community.timebanks.org/timebanks/spencer-okoboji-time-bank" },
 { "latitude": 40.437138, "longitude": -79.951352, "title": "Three Rivers Timebank", "url": "http://community.timebanks.org/timebanks/three-rivers-timebank" },
 { "latitude": 28.027634, "longitude": -81.997004, "title": "Polk Time", "url": "http://community.timebanks.org/timebanks/polk-time" },
 { "latitude": 38.586052, "longitude": -90.2941, "title": "Creative Exchange", "url": "http://community.timebanks.org/timebanks/creative-exchange" },
 { "latitude": 39.246179, "longitude": -94.41763, "title": "Hour 4 Our World", "url": "http://community.timebanks.org/timebanks/hour-4-our-world" },
 { "latitude": 32.822815, "longitude": -117.09844, "title": "Central SD Timebank", "url": "http://community.timebanks.org/timebanks/central-sd-timebank" },
 { "latitude": 39.915263, "longitude": -75.06401, "title": "Collingswood hOUR Share", "url": "http://community.timebanks.org/timebanks/collingswood-hour-share" },
 { "latitude": 47.67903, "longitude": -122.1934, "title": "Timebanks of Puget Sound (TOPS)", "url": "http://community.timebanks.org/timebanks/timebanks-puget-sound" },
 { "latitude": 38.549256, "longitude": -121.73655, "title": "Timebank Davis", "url": "http://community.timebanks.org/timebanks/timebank-davis" },
 { "latitude": 38.393314, "longitude": -122.83666, "title": "GVV Timebank", "url": "http://community.timebanks.org/timebanks/gvv-timebank" },
 { "latitude": 39.618221, "longitude": -78.29747, "title": "Mountaineer Time Exchange ", "url": "http://community.timebanks.org/timebanks/mountaineer-time-exchange" },
 { "latitude": 41.649867, "longitude": -91.52019, "title": "Iowa City Time Dollars", "url": "http://community.timebanks.org/timebanks/iowa-city-time-dollars" },
 { "latitude": 38.96516, "longitude": -77.06737, "title": "TimeForAll", "url": "http://community.timebanks.org/timebanks/tbusa" },
 { "latitude": 47.304221, "longitude": -122.21602, "title": "Grace Community Church", "url": "http://community.timebanks.org/timebanks/grace-community-church" },
 { "latitude": 21.286768, "longitude": -157.82363, "title": "Oahu Timebank", "url": "http://community.timebanks.org/timebanks/oahu-timebank" },
 { "latitude": 39.158858, "longitude": -78.122676, "title": "Win Win Timebank", "url": "http://community.timebanks.org/timebanks/win-win-timebank" },
 { "latitude": 44.916912, "longitude": -89.592218, "title": "hOur Community TimeBank", "url": "http://community.timebanks.org/timebanks/hour-community-timebank" },
 { "latitude": 39.914858, "longitude": -75.576504, "title": "West Chester Area TimeBank", "url": "http://community.timebanks.org/timebanks/west-chester-area-timebank" },
 { "latitude": 38.68, "longitude": -121.18, "title": "iWE Studio TimeBank Initiative", "url": "http://community.timebanks.org/timebanks/iwe-studio-foundation-timebank" },
 { "latitude": 37.858562, "longitude": -122.283402, "title": "Derby Do Good", "url": "http://community.timebanks.org/timebanks/derby-do-good" },
 { "latitude": 39.726016, "longitude": -86.266646, "title": "TimeBank Indianapolis", "url": "http://community.timebanks.org/timebanks/mcs-1-stop-central-indiana-community" },
 { "latitude": 42.927797, "longitude": -75.845153, "title": "Cazenovia TimeBank/CRIS", "url": "http://community.timebanks.org/timebanks/cris-timebank" },
 { "latitude": 39.091953, "longitude": -94.546971, "title": "Mary L Kelly Center", "url": "http://community.timebanks.org/timebanks/mary-l-kelly-center" },
 { "latitude": 38.578716, "longitude": -121.442763, "title": "Community Skill Exchange", "url": "http://community.timebanks.org/timebanks/community-skill-exchange-sacramento" },
 { "latitude": 37.750776, "longitude": -122.172757, "title": "Maat360", "url": "http://community.timebanks.org/timebanks/maat360" },
 { "latitude": 31.582195, "longitude": -102.887262, "title": "Ward County Timebank", "url": "http://community.timebanks.org/timebanks/ward-county-timebank" },
 { "latitude": 45.132194, "longitude": -72.800547, "title": "Coop Des Voisins", "url": "http://community.timebanks.org/timebanks/coop-monteregie" },
 { "latitude": -33.331707, "longitude": 115.660711, "title": "Project Bunbury", "url": "http://community.timebanks.org/timebanks/project-bunbury" },
 { "latitude": 47.545462, "longitude": -122.380106, "title": "West Seattle Timebank", "url": "http://community.timebanks.org/timebanks/west-seattle" },
 { "latitude": 39.936179, "longitude": -75.11513, "title": "Pay It Forward Bank", "url": "http://community.timebanks.org/timebanks/pay-it-forward-bank" },
 { "latitude": 38.867175, "longitude": -76.986921, "title": "Our Sharing Community At Bread", "url": "http://community.timebanks.org/timebanks/our-sharing-community-bread" },
 { "latitude": 52.033889, "longitude": -0.772204, "title": "MK TimeBank", "url": "http://community.timebanks.org/timebanks/mk-timebank" },
 { "latitude": 47.263837, "longitude": -122.452113, "title": "Connect and Care TimeBank", "url": "http://community.timebanks.org/timebanks/connect-and-care-timebank" },
 { "latitude": 29.81686, "longitude": -95.852391, "title": "Cottage In The Woods", "url": "http://community.timebanks.org/timebanks/cottage-woods" },
 { "latitude": 41.465774, "longitude": -81.558635, "title": "Greater Heights Community TimeBank", "url": "http://community.timebanks.org/timebanks/greater-heights-community-timebank" },
 { "latitude": 48.017623, "longitude": -122.437728, "title": "South Whidbey Community Connections", "url": "http://community.timebanks.org/timebanks/south-whidbey-community-connections" },
 { "latitude": 29.779911, "longitude": -95.526123, "title": "NERD", "url": "http://community.timebanks.org/timebanks/nerd" },
 { "latitude": 54.96183, "longitude": -1.460354, "title": "Exchange and Change", "url": "http://community.timebanks.org/timebanks/sunderland-exchange-and-change" },
 { "latitude": 40.960658, "longitude": -90.370954, "title": "Time Bank of Galesburg", "url": "http://community.timebanks.org/timebanks/time-bank-galesburg" },
 { "latitude": -26.20281, "longitude": 28.045314, "title": "Khokha", "url": "http://community.timebanks.org/timebanks/khokha" },
 { "latitude": 46.235988, "longitude": -64.566597, "title": "TimeBank New Brunswick", "url": "http://community.timebanks.org/timebanks/timebank-new-brunswick" },
 { "latitude": 34.254113, "longitude": -118.532631, "title": "Northridge Time Bank", "url": "http://community.timebanks.org/timebanks/northridge-community-time-bank" },
 { "latitude": 43.215863, "longitude": -77.937187, "title": "Brockport TimeBank", "url": "http://community.timebanks.org/timebanks/brockport-timebank" },
 { "latitude": 34.121536, "longitude": -118.352691, "title": "YING", "url": "http://community.timebanks.org/timebanks/ying" },
 { "latitude": 59.863569, "longitude": 10.66706, "title": "Nesodden byttering", "url": "http://community.timebanks.org/timebanks/nesoddliv" },
 { "latitude": 32.768979, "longitude": -108.277244, "title": "Gospel Mission Time Bank", "url": "http://community.timebanks.org/timebanks/scgm" },
 { "latitude": 34.058965, "longitude": -84.507144, "title": "Village Cooperative Exchange", "url": "http://community.timebanks.org/timebanks/village-cooperative-exchange" },
 { "latitude": 40.449356, "longitude": -122.298082, "title": "Anderson Community Timebank", "url": "http://community.timebanks.org/timebanks/anderson-community-timebank" },
 { "latitude": 41.465349, "longitude": -81.587733, "title": "Greater Buckeye Community TimeSharing", "url": "http://community.timebanks.org/timebanks/greater-cleveland-community-timebank" },
 { "latitude": 43.543844, "longitude": -80.249345, "title": "Guelph Wellington TimeBank", "url": "http://community.timebanks.org/timebanks/guelph-wellington-timebank" },
 { "latitude": -43.545811, "longitude": 172.641813, "title": "FabLabChch", "url": "http://community.timebanks.org/timebanks/fablabchch" },
 { "latitude": 47.701932, "longitude": -2.623079, "title": "Banque de Pi√®ces d\'Heures du Labo", "url": "http://community.timebanks.org/timebanks/le-labo-du-nautilus" },
 { "latitude": 42.792514, "longitude": -76.11721, "title": "Tully Area TimeBank", "url": "http://community.timebanks.org/timebanks/tully-area-timebank" },
 { "latitude": 36.140205, "longitude": 128.33391, "title": "timebankskorea", "url": "http://community.timebanks.org/timebanks/timebankskorea" },
 { "latitude": 40.740265, "longitude": -84.10761, "title": "Our Community Time Bank", "url": "http://community.timebanks.org/timebanks/our-community-time-bank" },
 { "latitude": 38.944672, "longitude": -77.06571, "title": "UDC TimeBank", "url": "http://community.timebanks.org/timebanks/udc-timebank" },
 { "latitude": 42.31207, "longitude": -82.954228, "title": "Windsor Essex Compassionate Community", "url": "http://community.timebanks.org/timebanks/windsor-essex-compassionate-community" },
 { "latitude": 43.423274, "longitude": -88.182601, "title": "Our TimeBank of Washington County", "url": "http://community.timebanks.org/timebanks/our-timebank-washington-county" },
 { "latitude": 39.413034, "longitude": -77.417739, "title": "Frederick TimeBank", "url": "http://community.timebanks.org/timebanks/frederick-time-bank" },
 { "latitude": -41.28578, "longitude": 174.777221, "title": "MWDI HINEPRENEUR", "url": "http://community.timebanks.org/timebanks/mwdi-hinepreneur" },
 { "latitude": 36.099897, "longitude": -80.246037, "title": "NBN Neighborhood Network", "url": "http://community.timebanks.org/timebanks/nbn-neighborhood-network" },
 { "latitude": 35.220909, "longitude": -97.517303, "title": "Norman Timebank", "url": "http://community.timebanks.org/timebanks/norman-timebank" },
 { "latitude": 41.372194, "longitude": -93.545473, "title": "Central Iowa Network", "url": "http://community.timebanks.org/timebanks/central-iowa-network" },
 { "latitude": 44.372449, "longitude": -100.355091, "title": "Central South Dakota Time Banking", "url": "http://community.timebanks.org/timebanks/central-south-dakota-time-banking" },
 { "latitude": 37.943025, "longitude": -122.329033, "title": "TimeKeeper Bank", "url": "http://community.timebanks.org/timebanks/timekeeperbank" },
 { "latitude": 40.015874, "longitude": -105.278982, "title": "StarTribe Hours", "url": "http://community.timebanks.org/timebanks/startribe-hours" },
 { "latitude": 35.985673, "longitude": -78.897962, "title": "Durham Timebank", "url": "http://community.timebanks.org/timebanks/durham-timebank" },
 { "latitude": -43.559132, "longitude": 172.706291, "title": "TimeBank Aotearoa New Zealand", "url": "http://community.timebanks.org/timebanks/timebank-aotearoa-new-zealand" },
 { "latitude": 27.778988, "longitude": -82.661844, "title": "The Everyday Hero Exchange", "url": "http://community.timebanks.org/timebanks/everyday-hero-exchange" },
 { "latitude": 30.352355, "longitude": -97.961858, "title": "Flourish Wellness Professionals Co-Op", "url": "http://community.timebanks.org/timebanks/flourish-wellness-professionals-co-op" },
 { "latitude": 42.340065, "longitude": -71.166876, "title": "History of Money Class At BC", "url": "http://community.timebanks.org/timebanks/history-money-class-bc" },
 { "latitude": 42.340065, "longitude": -71.166876, "title": "History of Money Class At BC", "url": "http://community.timebanks.org/timebanks/history-money-class-bc-0" },
 { "latitude": 40.055763, "longitude": -76.296942, "title": "Lancaster County TimeBank", "url": "http://community.timebanks.org/timebanks/lancaster-county-timebank" },
 { "latitude": 38.401967, "longitude": -122.825141, "title": "Sebastopol Area Time Bank", "url": "http://community.timebanks.org/timebanks/sebastopol-area-time-bank" },
 { "latitude": 45.944071, "longitude": -66.645086, "title": "TimeBank Fredericton", "url": "http://community.timebanks.org/timebanks/timebank-fredericton" },
 { "latitude": 44.508005, "longitude": -88.014855, "title": "Innovative Services Employee Timebank", "url": "http://community.timebanks.org/timebanks/innovative-services-employee-timebank" },
 { "latitude": 37.2341, "longitude": -80.4141, "title": "New River Valley TimeBank", "url": "http://community.timebanks.org/timebanks/new-river-valley-timebank" },
 { "latitude": 38.052576, "longitude": -84.729946, "title": "Kentucky Light Community (KLC)", "url": "http://community.timebanks.org/timebanks/kentucky-light-community-klc" },
 { "latitude": 36.709042, "longitude": -81.964583, "title": "WCOVA TimeBank", "url": "http://community.timebanks.org/timebanks/wcova-timebank" },
 { "latitude": 40.814711, "longitude": -73.501605, "title": "Long Island Christian Timebank", "url": "http://community.timebanks.org/timebanks/long-island-christian-timebank" },
 { "latitude": 33.698449, "longitude": -117.719481, "title": "Hope Xchange Timebank", "url": "http://community.timebanks.org/timebanks/hope-xchange-timebank" },
 { "latitude": 38.626805, "longitude": -90.241839, "title": "PrideCenter STL", "url": "http://community.timebanks.org/timebanks/pridecenter-stl" },
 { "latitude": 37.84802, "longitude": -122.274688, "title": "Neighborhood Village", "url": "http://community.timebanks.org/timebanks/neighborhood-village" },
 { "latitude": -40.81341, "longitude": 175.122108, "title": "Kapiti 50 +", "url": "http://community.timebanks.org/timebanks/kapiti-50-timebank" },
 { "latitude": 38.90915, "longitude": -76.940638, "title": "The Sanctuary Intergenerational Senior Village", "url": "http://community.timebanks.org/timebanks/sanctuary-intergenerational-senior-village" },
 { "latitude": -46.435643, "longitude": 168.367054, "title": "Murihiku Time Exchange", "url": "http://community.timebanks.org/timebanks/murihiku-time-exchange" },
 { "latitude": 45.141725, "longitude": -89.139442, "title": "CARE Timebank", "url": "http://community.timebanks.org/timebanks/care-connecting-antigos-resources-effectively-timebank" },
 { "latitude": 38.621808, "longitude": -121.486076, "title": "Sac Valley Time Bank", "url": "http://community.timebanks.org/timebanks/sac-valley-time-bank" },
 { "latitude": -40.81341, "longitude": 175.122108, "title": "Central NZ Permaculture Timebank", "url": "http://community.timebanks.org/timebanks/central-nz-permaculture-timebank" },
 { "latitude": 36.622573, "longitude": -93.201613, "title": "Taney County Time Bank", "url": "http://community.timebanks.org/timebanks/taney-county-time-bank" },
 { "latitude": -40.323397, "longitude": 175.649039, "title": "TimeBank Manawatu", "url": "http://community.timebanks.org/timebanks/timebank-manawatu" },
 { "latitude": 41.633811, "longitude": -80.143558, "title": "Meadville Time Trade", "url": "http://community.timebanks.org/timebanks/meadville-time-trade" },
 { "latitude": 33.204045, "longitude": -97.12707, "title": "Denton Time Exchange", "url": "http://community.timebanks.org/timebanks/denton-time-exchange" },
 { "latitude": 39.28899, "longitude": -77.859718, "title": "Jefferson Community Time Bank", "url": "http://community.timebanks.org/timebanks/jefferson-community-time-bank" },
 { "latitude": 37.264954, "longitude": -79.977626, "title": "Roanoke Valley Time Bank", "url": "http://community.timebanks.org/timebanks/roanoke-valley-time-bank" },
 { "latitude": 42.756724, "longitude": -73.680649, "title": "Margination Mutual Support Network", "url": "http://community.timebanks.org/timebanks/margination-mutual-support-network" },
 { "latitude": 64.856052, "longitude": -147.804993, "title": "Fairbanks Time Bank", "url": "http://community.timebanks.org/timebanks/fairbanks-time-bank" },
 { "latitude": 35.573833, "longitude": -82.506772, "title": "East Asheville Neighbors Network", "url": "http://community.timebanks.org/timebanks/east-asheville-neighbors-network" },
 { "latitude": 34.875091, "longitude": -83.953221, "title": "Appalachian Time Exchange", "url": "http://community.timebanks.org/timebanks/appalachian-time-exchange" },
 { "latitude": 39.884468, "longitude": -76.796515, "title": "York Time Bank", "url": "http://community.timebanks.org/timebanks/york-time-bank" },
 { "latitude": 48.107994, "longitude": -123.420611, "title": "LinkAges for Lifelong Independence", "url": "http://community.timebanks.org/timebanks/linkages-lifelong-independence" },
 { "latitude": 35.593828, "longitude": -82.550041, "title": "Asheville TimeBank", "url": "http://community.timebanks.org/timebanks/asheville-timebank" },
 { "latitude": 37.756487, "longitude": -122.443006, "title": "Globetable", "url": "http://community.timebanks.org/timebanks/globetable" },
 { "latitude": -44.696938, "longitude": 169.134962, "title": "Wanaka Time Bank", "url": "http://community.timebanks.org/timebanks/wanaka-time-bank" } ]
