"title","logo","longitude","latitude"
"Salve &dash; Banca del Tempo Capo di Leuca","<img src=\""https://i1.wp.com/www.associazionenazionalebdt.it/wp-content/uploads/2017/05/Logo-Capo-di-Leuca.jpg?resize=150%2C150\"" />",18.292914,39.858475
"Olbia Tempio &dash; Banca del Tempo Scambio Tempo Bank","<img src=\""https://i2.wp.com/www.associazionenazionalebdt.it/wp-content/uploads/2017/05/Logo-Olbia-B.jpg?resize=150%2C150\"" />",9.485236,40.912678
"Coordinamento Regionale Banche del Tempo Sicilia","<img src=https://i1.wp.com/www.associazionenazionalebdt.it/wp-content/uploads/2015/12/Logo-Coordinamento-Sicilia.jpg?resize=150%2C150\"" />Via Francesco Crispi, c/o Comune, 98021 Alรฌ Terme",15.41888,37.999299
"Schio &dash; Banca del Tempo di Schio","<img src=\""https://i2.wp.com/www.associazionenazionalebdt.it/wp-content/uploads/2017/03/Logo-Schio.jpg?resize=150%2C150\"" />presso la sede in Viale Trento Trieste 3<br /> ",11.355502,45.710944
"Putignano &dash; Banca del Tempo La rosa di Gerico","<img class=""wp-image-11600 alignleft"" src=\""https://i0.wp.com/www.associazionenazionalebdt.it/wp-content/uploads/2017/03/Logo-Putignano-2-1.jpg?resize=300%2C150\"" />dalle ore 18:00 alle ore 20:00<br /> ",17.118778,40.854879
"Torino &dash; Banca del Tempo &quote;Tempo al Tempo&quote;","<img src=\""https://i0.wp.com/www.associazionenazionalebdt.it/wp-content/uploads/2015/12/Image_coming_soon.jpg?resize=150%2C150\"" />dalle ore 14:00 alle ore 18:00",7.7076,45.116852
"Roncello &dash; Banca del Tempo &quote;Banda del Tempo&quote;","<img src=\""https://i1.wp.com/www.associazionenazionalebdt.it/wp-content/uploads/2016/12/Logo-Roncello.jpg?resize=150%2C150\"" />P.zza SantโAmbrogio 1, 20877 Roncello",9.458887,45.600978
"Vicenza &dash; Banca del Tempo Medoacus","<img src=\""https://i1.wp.com/www.associazionenazionalebdt.it/wp-content/uploads/2016/12/Logo-Vicenza.jpg?resize=150%2C150\"" />Via Don Luigi Sturzo 1, 36050 Vicenza",11.626536,45.578562
"Assisi &dash; Banca del Tempo di Subasio","<img src=\""https://i1.wp.com/www.associazionenazionalebdt.it/wp-content/uploads/2016/11/Logo-Assisi.jpg?resize=150%2C150\"" />Via Cristoforo Cecci 1, c/o CESVOL, 06081 Assisi",12.590515,43.049938
"Predappio &dash; Banca del Tempo Predappio","<img src=\""https://i2.wp.com/www.associazionenazionalebdt.it/wp-content/uploads/2016/11/Logo-Predappio.jpg?resize=150%2C150\"" />Via Dello Sport 1, 47016 Predappio",11.982394,44.103273
"Monterosi &dash; Banca del Tempo di Monterosi","<img src=\""https://i2.wp.com/www.associazionenazionalebdt.it/wp-content/uploads/2016/10/Logo-Monterosi.jpg?resize=150%2C150\"" />dalle ore 16:30 alle ore 18:30",12.309623,42.195552
"Messina &dash; Banca del Tempo Zancle Solidale","<img class=""wp-image-9001 size-thumbnail alignleft"" src=\""https://i0.wp.com/www.associazionenazionalebdt.it/wp-content/uploads/2016/10/Logo-Messina-Zancle-Solidale.jpg?resize=150%2C150\"" />",15.555772,38.202935
"Ragusa &dash; Banca del Tempo Iblea","<img src=\""https://i0.wp.com/www.associazionenazionalebdt.it/wp-content/uploads/2016/10/Logo-Iblea.jpg?resize=150%2C150\"" />Via Ercolano 26, 97100 Ragusa",14.723866,36.917066
"Mantova &dash; Banca del Tempo Passa-Tempo","<img src=\""https://i2.wp.com/www.associazionenazionalebdt.it/wp-content/uploads/2016/09/Logo-Mantova.jpg?resize=150%2C150\"" />dalle ore 15:00 alle ore 17:00",10.797672,45.160982
"Lodi &dash; Banca del Tempo di Lodi","<img src=\""https://i1.wp.com/www.associazionenazionalebdt.it/wp-content/uploads/2016/09/Logo-Lodi.jpg?resize=150%2C150\"" /><strong>Referente:</strong>",9.506389,45.311773
"Milano &dash; Banca del Tempo Il Valore del Tempo On Line","<img src=\""https://i1.wp.com/www.associazionenazionalebdt.it/wp-content/uploads/2016/09/Logo-Il-valore-del-Tempo-On-Line.jpg?resize=150%2C150\"" /><strong>Indirizzo:</strong>",9.231626,45.487032
"Riccione &dash; Banca del Tempo di Riccione","<img src=\""https://i0.wp.com/www.associazionenazionalebdt.it/wp-content/uploads/2016/09/Logo-Riccione-1.jpg?resize=150%2C150\"" />Viale Lazio 10, 47838 Riccione<br /> ",12.652908,43.994511
"Rimini &dash; Banca del Tempo della Famiglia","<img src=\""https://i0.wp.com/www.associazionenazionalebdt.it/wp-content/uploads/2015/12/Image_coming_soon.jpg?resize=150%2C150\"" />Via Giacomo Brodolini 10, loc. Viserba a Monte, 47922 Rimini",12.529594,44.077632
".Coordinamento Banche del Tempo di Rimini e S.Giustina","<img src=\""https://i0.wp.com/www.associazionenazionalebdt.it/wp-content/uploads/2015/12/Image_coming_soon.jpg?resize=150%2C150\"" />Via Montiano 14, 47922 Santa Giustina, frazione di Rimini",12.482224,44.068345
"Roma โ Municipio X &dash; Banca del Tempo UIS","<img src=\""https://i0.wp.com/www.associazionenazionalebdt.it/wp-content/uploads/2015/12/Image_coming_soon.jpg?resize=150%2C150\"" /><strong></strong>",12.264323,41.739479
"Bergamo &dash; Banca del Tempo Conca Fiorita","<img src=\""https://i2.wp.com/www.associazionenazionalebdt.it/wp-content/uploads/2016/08/Logo-Conca-Fiorita.jpg?resize=150%2C150\"" /></strong>",9.67955,45.70906
"Matera &dash; Banca del Tempo &quote;Tempo ritrovato&quote;","<img src=\""https://i0.wp.com/www.associazionenazionalebdt.it/wp-content/uploads/2015/12/Image_coming_soon.jpg?resize=150%2C150\"" /></strong>",16.593246,40.676851
"Roma โ Municipio XV &dash; Associazione di Promozione Sociale &dash; Reatino 15","<img class=""wp-image-8652 alignleft"" src=\""https://i0.wp.com/www.associazionenazionalebdt.it/wp-content/uploads/2016/08/Logo-Reatino-15-Roma4-2.jpg?resize=450%2C150\"" /><strong></strong>",12.442523,41.974198
"Genova โ Banca del Tempo &quote;La banda del tempo&quote;","<div src=\""https://i2.wp.com/www.associazionenazionalebdt.it/wp-content/uploads/2016/07/Logo-La-Banda-del-Tempo.jpg?resize=150%2C150\"" /><strong></strong></div>",8.936904,44.412492
"Besnate (Varese) &dash; Banca del Tempo Besnate","<img class=""alignleft size-thumbnail wp-image-7580"" src=\""https://i2.wp.com/www.associazionenazionalebdt.it/wp-content/uploads/2016/06/Logo-Besnate-1.jpg?resize=150%2C150\"" /><strong></strong>",8.764835,45.700286
"Francavilla al Mare &dash; Kairos &dash; Banca del Tempo e dei Saperi","<img class=""size-thumbnail wp-image-7565 alignleft"" src=\""https://i0.wp.com/www.associazionenazionalebdt.it/wp-content/uploads/2015/12/Image_coming_soon.jpg?resize=150%2C150\"" />Viale Maiella 21, 66023 Francavilla al Mare ",14.267541,42.433473
"Vighignolo (Settimo Milanese) &dash; Banca del Tempo L&#8217;Attimo Fuggente","<img src=\""https://i2.wp.com/www.associazionenazionalebdt.it/wp-content/uploads/2016/03/Logo-Attimo-Fuggente.jpg?resize=150%2C150\"" />Via Aldo Moro 5, 20019 Vighignolo (Settimo Milanese)<br /> ",9.041878,45.496989
"Lugo &dash; Banca del Tempo e delle Competenze di Lugo e Bassa Romagna","<img src=\""https://i0.wp.com/www.associazionenazionalebdt.it/wp-content/uploads/2016/03/Logo-Lugo.jpg?resize=150%2C150\"" /><br /> ",11.905321,44.415768
"Genova &dash;  Associazione Il Moltiplicatore: Banca del Tempo NAIF-M3 (Nascono i fiori &dash; Municipio3)","<img src=\""https://i1.wp.com/www.associazionenazionalebdt.it/wp-content/uploads/2016/02/Logo-Il-moltiplicatore-Naif.jpg?resize=150%2C150\"" />dalle ore 10.00 alle ore 12.00",8.95907,44.408162
"Vercelli &dash; Banca del Tempo Vita Activa","<img src=\""https://i2.wp.com/www.associazionenazionalebdt.it/wp-content/uploads/2016/02/Logo-Vercelli.jpg?resize=150%2C150\"" />dalle ore 17:30 alle ore 19:00",8.417984,45.31975
"Corsano &dash; Banca del Tempo di Corsano","&nbsp;<p><strong>Referente:ย </strong><p>Antonella Nicoli<p><strong>Telefono:ย </strong><p>+39 320 473 445<p><strong>E-mail:</strong> <p>nicoli@libero.it<p style=""text-align: left;""><strong>Indirizzo:</strong> <p style=""text-align: left;"">Via della Libertร  2, c/o Comune di Corsano, 73033 Corsano<br /> &nbsp;",18.368393,39.888633
"Grosseto &dash; Banca del Tempo di Grosseto &quote;ARS maremma&quote;","<img src=\""https://i0.wp.com/www.associazionenazionalebdt.it/wp-content/uploads/2016/02/Logo-Grosseto-ARS-maremma.jpg?resize=150%2C150\"" /><br /> ",11.121857,42.781448
"Fucecchio &dash; Banca del Tempo di Fucecchio","<img src=\""https://i0.wp.com/www.associazionenazionalebdt.it/wp-content/uploads/2015/12/Image_coming_soon.jpg?resize=150%2C150\"" />dalle ore 18:30 alle ore 19:30",10.810161,43.728704
"Vinovo &dash; Banca del Tempo di Vinovo","<img src=\""https://i2.wp.com/www.associazionenazionalebdt.it/wp-content/uploads/2016/01/Logo-Vinovo.jpg?resize=150%2C150\"" /><br /> ",7.6319,44.94917
"Verbania &dash; Banca del Tempo di Verbania &quote;Wolf&quote;","&nbsp;<p><strong>Referente:</strong> <p>Marco Del Signore<p><strong>Telefono:</strong> <p>+39 333 786 86 66<p><strong>Facebook:</strong> <p>BANCA DEL TEMPO Verbania<p style=""text-align: left;""><strong>Indirizzo:</strong> <p style=""text-align: left;"">Via Vittorio Veneto 135, 28922 Verbania<br /> &nbsp;",8.569724,45.931051
"Torre Pellice &dash; Banca del Tempo di Val Pellice","<img src=\""https://i0.wp.com/www.associazionenazionalebdt.it/wp-content/uploads/2015/12/Image_coming_soon.jpg?resize=150%2C150\"" /><br /> ",7.220104,44.821808
"Torino &dash; Banca del Tempo di Torino โ IV Circ.","&nbsp;<p><strong>Telefono:</strong> <p>+39 011 485 299<p><strong>E-mail:</strong> <p>bancadeltempo4ctorino@libero.it<p style=""text-align: left;""><strong>Indirizzo:</strong> <p style=""text-align: left;"">Via Principi d&#8217;Acaja 12, 10143 Torino<br /> &nbsp;",7.664551,45.076583
"Torino &dash; Banca del Tempo di Torino &dash; II Circ. &quote;In Contro Corrente&quote;","&nbsp;<p><strong>Telefono:</strong> <p>+39 011 305 72 91<p><strong>E-mail:</strong><p> incontro.corrente@virgilio.it<p style=""text-align: left;""><strong>Indirizzo:</strong> <p style=""text-align: left;"">Via Rubino 45, c/o Cascina Roccafranca, 10137 Torino<br /> &nbsp;",7.623597,45.040024
"Settimo Torinese &dash; Banca del Tempo di Settimo Torinese","<img src=\""https://i0.wp.com/www.associazionenazionalebdt.it/wp-content/uploads/2015/12/Image_coming_soon.jpg?resize=150%2C150\"" /><br /> ",7.775515,45.137107
"Rosta &dash; Banca del Tempo di Rosta","&nbsp;<p><strong>Referente:</strong> <p>Ugo Capella<p><strong>Telefono:</strong> <p>+39 011 954 00 85<p><strong>E-mail:</strong><p> u.capella@virgilio.it<p style=""text-align: left;""><strong>Indirizzo:</strong> <p style=""text-align: left;"">Via Bastone 36, 10090 Rosta<br /> &nbsp;",7.4699,45.06905
"Robassomero &dash; Banca del Tempo di Robassomero","<img src=\""https://i1.wp.com/www.associazionenazionalebdt.it/wp-content/uploads/2016/01/Logo-Robassomero.jpg?resize=150%2C150\"" />dalle ore 09:30 alle ore 11:30",7.572698,45.199326
"Pino Torinese &dash; Banca del Tempo di Pino Torinese","&nbsp;<p><strong>Referente:</strong> <p>Costanza Reviglio<p><strong>Telefono:</strong> <p>+39 011 811 91 91<p><strong>E-mail:</strong> <p>bancadeltempopino@gmail.com<p style=""text-align: left;""><strong>Indirizzo:</strong> <p style=""text-align: left;"">Strada San Felice 2, c/o Centro Pari Dispari Comune, 10025 Pino Torinese<br /> &nbsp;",7.772893,45.043577
"Pinerolo &dash; Banca del Tempo di Pinerolo","&nbsp;<p><strong>Referente:</strong> <p>Maria Teresa Maloberti<p><strong>Telefono:</strong> <p>+39 012 139 63 73<p><strong>E-mail:</strong> <p>bdt.pinerolo@libero.it<p><strong>Sito internet:</strong> <p>www.bancadeltempopinerolo.it<p style=""text-align: left;""><strong>Indirizzo:</strong> <p style=""text-align: left;"">Viale della Rimembranza 65/A, 10064 Pinerolo<br /> &nbsp;",7.332847,44.892838
"Oulx &dash; Banca del Tempo di Oulx","&nbsp;<p><strong>Telefono:</strong> <p>+39 012 283 11 02<p><strong>E-mail:</strong> <p>segreteria@comuneoulx.to.it<p style=""text-align: left;""><strong>Indirizzo:</strong> <p style=""text-align: left;"">Piazza Garambois 1, 10056 Oulx<br /> &nbsp;",6.83281,45.03102
"Ovada &dash; Banca del Tempo &quote;l&#8217;Idea&quote;","<img src=\""https://i1.wp.com/www.associazionenazionalebdt.it/wp-content/uploads/2016/01/Logo-LIdea.jpg?resize=150%2C150\"" />dalle ore 21.00 alle ore 23.00 presso la sede in Piazza Cereseto 7<br />",8.639676,44.636157
"Oleggio &dash; Banca del Tempo di Oleggio","&nbsp;<p><strong>Referente:</strong> <p>Anna Maria Gallucci<p><strong>Telefono:</strong> <p>+39 032 199 26 20<p><strong>E-mail:</strong> <p>annaetonino@libero.it<p style=""text-align: left;""><strong>Indirizzo:</strong> <p style=""text-align: left;"">Viale Paganini 5, 28047 Oleggio<br /> &nbsp;",8.63749,45.5998
"Novello &dash; Banca del Tempo Dai Tempo al Tempo","<img src=\""https://i0.wp.com/www.associazionenazionalebdt.it/wp-content/uploads/2015/12/Image_coming_soon.jpg?resize=150%2C150\"" /><br /> ",7.927617,44.58801
"Nichelino &dash; Banca del Tempo di Nichelino","<img src=\""https://i1.wp.com/www.associazionenazionalebdt.it/wp-content/uploads/2016/01/Logo-Nichelino.jpg?resize=150%2C150\"" /><strong></strong>",7.649758,44.99586
"Moncalieri &dash; Banca del Tempo di Moncalieri","&nbsp;<p><strong>Referente:</strong> <p>E. Lambiase &dash; M. Signorello<p><strong>Telefono:</strong> <p>+39 011 605 6 025<p>+39 333 219 73 18<p><strong>E-mail:</strong> <p>spaziodonna@comune.moncalieri.torino.it<p style=""text-align: left;""><strong>Indirizzo:</strong> <p style=""text-align: left;"">Via Fiume 17/bis, 10024 Moncalieri<br /> &nbsp;",7.66129,45.00939
"Monastero Bormida &dash; Banca del Tempo 5 Torri","<img src=\""https://i1.wp.com/www.associazionenazionalebdt.it/wp-content/uploads/2016/01/Logo-5-Torri.jpg?resize=150%2C150\"" /><br /> ",8.325237,44.648389
"Ivrea &dash; Banca del Tempo di Ivrea","&nbsp;<p><strong>Telefono:</strong> <p>+39 012 549 514<p><strong>E-mail:</strong><p> as.donneivrea@libero.it<p style=""text-align: left;""><strong>Indirizzo:</strong> <p style=""text-align: left;"">Via Dora Baltea 1, 10015 Ivrea<br /> &nbsp;",7.87463,45.4629
"Gravere &dash; Banca del Tempo di Gravere","&nbsp;<p><strong>Referente:</strong> <p>Giorgio Zagaria<p><strong>Telefono:</strong> <p>+39 012 232 541<p><strong>E-mail:</strong> <p>bancadeltempogravere@tiscali.it<p style=""text-align: left;""><strong>Indirizzo:</strong> <p style=""text-align: left;"">Via Europa 2, 10050 Gravere<br /> &nbsp;",7.018051,45.126197
"Cumiana &dash; Banca del Tempo di Cumiana","&nbsp;<p><strong>Telefono:</strong> <p>+39 011 905 93 02<p><strong>E-mail:</strong> <p>bdt.cuniana@libero.it<p style=""text-align: left;""><strong>Indirizzo:</strong> <p style=""text-align: left;"">Via Caduti della Libertร  29, 10040 Cumiana<br /> &nbsp;",7.372091,44.983523
"Chieri &dash; Banca del Tempo di Chieri","<img src=\""https://i0.wp.com/www.associazionenazionalebdt.it/wp-content/uploads/2016/01/Logo-Chieri.jpg?resize=150%2C150\"" /><br /> ",7.819983,45.010628
"Ciriรจ &dash; Banca del Tempo di Ciriรจ","<img class=""wp-image-11461 size-thumbnail alignleft"" src=\""https://i1.wp.com/www.associazionenazionalebdt.it/wp-content/uploads/2016/01/Logo-Ciriรจ.jpg?resize=150%2C150\"" />dalle ore 10:00 alle ore 11:00",7.606892,45.235781
"Candelo &dash; Banca del Tempo di Candelo","<img src=\""https://i1.wp.com/www.associazionenazionalebdt.it/wp-content/uploads/2016/01/Logo-Candelo.jpg?resize=150%2C150\"" /><strong></strong>",8.110865,45.545578
"Brichierasio &dash; Banca del Tempo di Brichierasio","&nbsp;<p><strong>Referente:</strong> <p>Michele Savalli<p><strong>E-mail:</strong> <p>bdtbrichie@yahoo.it<p style=""text-align: left;""><strong>Indirizzo:</strong> <p style=""text-align: left;"">Via Vittorio Emanuele 79b, c/o biblioteca, 10060 Brichierasio<br /> &nbsp;",7.30314,44.82405
"Borgaro Torinese &dash; Banca del Tempo di Borgaro Torinese","<img src=\""https://i0.wp.com/www.associazionenazionalebdt.it/wp-content/uploads/2015/12/Image_coming_soon.jpg?resize=150%2C150\"" /><br /> ",7.625689,45.134727
".Coordinamento Banche del Tempo di Torino","<img src=\""https://i2.wp.com/www.associazionenazionalebdt.it/wp-content/uploads/2016/01/Logo-Coordinamento-Torino.jpg?resize=150%2C150\"" /><br /> ",7.663437,45.089901
"Seriate &dash; Banca del Tempo Seriate","&nbsp;<p><strong>Telefono:</strong> <p>+39 035 423 681<p style=""text-align: left;""><strong>Indirizzo:</strong> <p style=""text-align: left;"">24068 Seriate<br /> &nbsp;",9.721701,45.685418
"Pisogne &dash; Banca del Tempo Pisogne Brescia","&nbsp;<p><strong>Telefono:</strong> <p>+39 036 487 446<p style=""text-align: left;""><strong>Indirizzo:</strong> <p style=""text-align: left;"">Via Valcamonica, 25055 Pisogne<br /> &nbsp;",10.10906,45.805518
"Pavia &dash; Banca del Tempo Pavia &quote;KAIRES&quote;","&nbsp;<p><strong>E-mail:</strong> <p>info@marrachekream.it<p style=""text-align: left;""><strong>Indirizzo:</strong> <p style=""text-align: left;"">Piazza Municipio 2, c/o Municipio, 27100 Pavia<br /> &nbsp;",9.159681,45.184613
"Marmirolo &dash; Associazione Tempi Moderni","&nbsp;<p style=""text-align: left;""><strong>Indirizzo:</strong> <p style=""text-align: left;"">Piazza Allende 1, 46045 Marmirolo<br /> &nbsp;",10.758633,45.220073
"Marcheno &dash; Banca del Tempo Marcheno Brescia","&nbsp;<p><strong>Telefono:</strong> <p>+39 030 896 03 05<p style=""text-align: left;""><strong>Indirizzo:</strong> <p style=""text-align: left;"">Via Rinaldini 5, 25060 Marcheno<br /> &nbsp;",10.211185,45.704681
"Como &dash; Associazione Comasca del Tempo","&nbsp;<p><strong>Telefono:</strong> <p>+39 031 270 320<p style=""text-align: left;""><strong>Indirizzo:</strong> <p style=""text-align: left;"">22100 Como<br /> &nbsp;",9.085176,45.80806
"Cenate di Sotto &dash; Banca del Tempo &quote;Alice&quote;","&nbsp;<p><strong>Telefono:</strong> <p>+39 035 425 09 73<p><strong>E-mail:</strong> <p>bdtalice@arcibergamo.it<p style=""text-align: left;""><strong>Indirizzo:</strong> <p style=""text-align: left;"">24069 Cenate di Sotto<br /> &nbsp;",9.825262,45.698853
"Castel Goffredo &dash; Banca del Tempo Castel Goffredo","&nbsp;<p><strong>Telefono:</strong> <p>+39 037 677 227<p style=""text-align: left;""><strong>Indirizzo:</strong> <p style=""text-align: left;"">22065 Castel Goffredo<br /> &nbsp;",10.432569,45.269532
"Cassolnovo &dash; Associazione un&#8217;ora sola ti vorrei","&nbsp;<p><strong>Telefono:</strong> <p>+39 340 798 60 60<p><strong>E-mail:</strong> <p>onlusscassolnovo@libero.it<p style=""text-align: left;""><strong>Indirizzo:</strong> <p>27023 Cassolnovo&nbsp;",8.809174,45.36304
"Brianza &dash; Banca del Tempo Cassago Brianza","&nbsp;<p><strong>Telefono:</strong> <p>+39 399 211 009<p style=""text-align: left;""><strong>Indirizzo:</strong> <p style=""text-align: left;"">23893 Cassago Brianza<br /> &nbsp;",9.292458,45.738925
"Capriano del Colle &dash; Banca del Tempo Capriano Del Colle","&nbsp;<p><strong>Telefono:</strong> <p>+39 030 974 73 84<p><strong>Sito Internet:</strong> <p>www.comune.capriano.bs.it/associazioni<p style=""text-align: left;""><strong>Indirizzo:</strong> <p style=""text-align: left;"">Via Falcone 27, 25020 Capriano del Colle<br /> &nbsp;",10.134249,45.454629
"Brescia &dash; Associazione La Sveglia &dash; Brescia","&nbsp;<p><strong>Telefono:</strong> <p>+39 030 354 45 50<p><strong>E-mail:</strong> <p>roberto@dracmanet.com<p style=""text-align: left;""><strong>Indirizzo:</strong> <p style=""text-align: left;"">Traversa XII 58/A, 25125 Brescia<br /> &nbsp;",10.189759,45.514226
"Brescia &dash; Associazione La Clessidra &dash; Brescia","&nbsp;<p><strong>Telefono:</strong> <p>+39 030 372 371<p style=""text-align: left;""><strong>Indirizzo:</strong> <p style=""text-align: left;"">Via Giovanni Cimabue 18/B, 25134 Brescia<br /> &nbsp;",10.257988,45.516337
"Bovezzo &dash; Associazione Bottega del Tempo &dash; Bovezzo","&nbsp;<p><strong>Telefono:</strong> <p>+39 030 211 12 07<p><strong>E-mail:</strong> <p>cultura@comune.bovezzo.bs.it<p><strong>Sito Internet:</strong> <p>www.comune.bovezzo.bs.it<p style=""text-align: left;""><strong>Indirizzo:</strong> <p style=""text-align: left;"">Via Cesare Battisti 52, 25073 Bovezzo<br /> &nbsp;",10.234565,45.595402
"Castiglione delle Stiviere &dash; Banca del Tempo Zerolimiti","<img src=\""https://i1.wp.com/www.associazionenazionalebdt.it/wp-content/uploads/2016/01/Logo-Castiglione-Zerolimiti.jpg?resize=150%2C150\"" /><strong></strong>",10.49441,45.39728
"Zanica &dash; Banca del Tempo di Zanica","<img src=\""https://i2.wp.com/www.associazionenazionalebdt.it/wp-content/uploads/2016/01/Logo-Zanica.jpg?resize=150%2C150\"" /><strong></strong>",9.68414,45.640087
"Villa d&#8217;Adda &dash; Banca del Tempo &quote;Pervilla&quote;","&nbsp;<p><strong>Telefono:</strong> <p>+39 333 461 38 18<p><strong>E-mail:</strong> <p>bdtxv@tiscali.it<p><strong>Sito Internet:</strong> <p>www.comune.villadadda.bg.it/banca_del_tempo_pervilla<p style=""text-align: left;""><strong>Indirizzo:</strong> <p style=""text-align: left;"">Piazzale Avis Aido 4/b, nella sede delle Associazioni Don Carlo Gnocchi, 24030 Villa d&#8217;Adda<br /> &nbsp;",9.456377,45.717533
"Leffe &dash; Banca del Tempo &quote;Darsi Tempo&quote;","&nbsp;<p><strong>E-mail:</strong> <p>darsitempo@libero.it<p><strong>Sito Internet:</strong> <p>www.darsitempo.blogspot.it<p style=""text-align: left;""><strong>Indirizzo:</strong> <p style=""text-align: left;"">Via Locatelli 20, 24026 Leffe<br /> &nbsp;",9.887735,45.799174
"Stezzano &dash; Banca del Tempo di Stezzano","<img class=""wp-image-7953 size-thumbnail alignleft"" src=\""https://i2.wp.com/www.associazionenazionalebdt.it/wp-content/uploads/2016/01/Logo-Stezzano.jpg?resize=150%2C150\"" /><br /> ",9.65228,45.65164
"Torre Boldone &dash; Banca del Tempo di Torre Boldone","&nbsp;<p><strong>E-mail:</strong> <p>bancadeltempo.torre@gmail.com<p><strong>Sito Internet:</strong> <p>www.comune.torreboldone.bg.it<p><strong>Indirizzo:</strong> <p>24020 Torre Boldone&nbsp;",9.70662,45.716309
"Ponte San Pietro &dash; Banca del Tempo di Ponte San Pietro","<img src=\""https://i0.wp.com/www.associazionenazionalebdt.it/wp-content/uploads/2016/01/Logo-Ponte-San-Pietro.jpg?resize=150%2C150\"" /><strong></strong>",9.589826,45.701703
"Palazzolo sull&#8217;Oglio &dash; Banca del Tempo Il Club","<img src=\""https://i2.wp.com/www.associazionenazionalebdt.it/wp-content/uploads/2016/01/Logo-Palazzolo.jpg?resize=150%2C150\"" /><strong>Referente:</strong>",9.883505,45.599785
"Arcene &dash; Banca del Tempo di Arcene","&nbsp;<p><strong>Telefono:</strong> <p>+39 347 233 09 27<p><strong>E-mail:</strong> <p>bdt.arcene@gmail.com<p style=""text-align: left;""><strong>Indirizzo:</strong> <p style=""text-align: left;"">Piazza del Donatore, c/o Centro Diurno &quote;La Madonnina&quote;, 24040 Arcene<br /> &nbsp;",9.613282,45.573472
"Bergamo &dash; Banca del Tempo Scambiatempo Redona","<img src=\""https://i2.wp.com/www.associazionenazionalebdt.it/wp-content/uploads/2016/01/Logo-Redona.jpg?resize=150%2C150\"" /><strong></strong>",9.692341,45.710988
"Bergamo &dash; Banca del Tempo &quote;Longuelo&quote;","&nbsp;<p><strong>E-mail:</strong> <p>bdtlonguelo@gmail.com<p style=""text-align: left;""><strong>Indirizzo:</strong> <p style=""text-align: left;"">Via Mattioli12/A, c/o Centro Socioculturale, 24129 Bergamo<br /> &nbsp;",9.631776,45.693717
"Bergamo &dash; Banca del Tempo Bergamo Centro","&nbsp;<p><strong>E-mail:</strong> <p>bdt.bg.centro@gmail.com<p style=""text-align: left;""><strong>Indirizzo:</strong> <p style=""text-align: left;"">Via Borgo Palazzo 16, 24125 Bergamo<br /> &nbsp;",9.679341,45.698132
".Coordinamento delle Banche del Tempo di Bergamo e Provincia &quote;Officina Del Tempo&quote;","<img class=""alignleft wp-image-8133"" src=\""https://i0.wp.com/www.associazionenazionalebdt.it/wp-content/uploads/2016/01/Logo-Coordinamento-Bergamo-e-Provincia.jpg?resize=450%2C150\"" /><strong></strong>",9.690507,45.708139
"Pavia &dash; Banca del Tempo dei Borghi e delle Valli Pavesi","<img src=\""https://i0.wp.com/www.associazionenazionalebdt.it/wp-content/uploads/2016/01/Borghi-e-delle-Valli-Pavesi-.jpg?resize=150%2C150\"" />ย ",9.161844,45.199503
"Montichiari &dash; Banca del Tempo Montichiari","&nbsp;<p><strong>Telefono:</strong> <p>+39 335 748 96 86<p><strong>Facebook:</strong> <p>La Banca del tempo di Montichiari<p style=""text-align: left;""><strong>Indirizzo:</strong> <p style=""text-align: left;"">25018 Montichiari<br /> &nbsp;",10.392871,45.414839
"Olgiate Olona &dash; Banca del Tempo Varese Valle Olona","&nbsp;<p><strong>Telefono:</strong> <p>+39 399 910 810<p><strong>E-mail:</strong> <p>vania.sergio@libero.it<p style=""text-align: left;""><strong>Indirizzo:</strong> <p style=""text-align: left;"">21057 Olgiate Olona<br /> &nbsp;",8.88761,45.633268
"Brescia &dash; Banca del Tempo Il Tempo Solidale","<img src=\""https://i1.wp.com/www.associazionenazionalebdt.it/wp-content/uploads/2016/01/Logo-Il-Tempo-Solidale-Brescia.jpg?resize=150%2C150\"" />Si incontrano gli interessati su appuntamento<br />",10.233013,45.581907
"Tradate &dash; Banca del Tempo &quote;Tempo e saperi&quote;","&nbsp;<p><strong>Telefono:</strong> <p>+39 349 342 52 38<p><strong>E-mail:</strong> <p>tempoesaperi.tradate@gmail.com<p><strong>Sito Internet:</strong> <p>www.tempoesaperi.blogspot.it<p style=""text-align: left;""><strong>Indirizzo:</strong> <p style=""text-align: left;"">Via Carlo de Simoni, c/o Palazzo del Comune, II piano, 21049 Tradate<br /> &nbsp;",8.905827,45.714008
"Varese &dash; Banca del Tempo Varese Montello","<img src=\""https://i0.wp.com/www.associazionenazionalebdt.it/wp-content/uploads/2015/12/Image_coming_soon.jpg?resize=150%2C150\"" /><br /> ",8.816114,45.831676
"Luino &dash; Banca del Tempo Varese Luino","&nbsp;<p><strong>Telefono:</strong> <p>+39ย 03 089 603 05 <p><strong>E-mail:</strong><p> rosariatorri@libero.it<p style=""text-align: left;""><strong>Indirizzo:</strong> <p style=""text-align: left;"">Viale delle Rimembranze 6, c/o Societร  Operaia Mutuo Soccorso, 21016 Luino<br /> &nbsp;",8.748774,45.998932
"Laveno Mombello &dash; Banca del Tempo Laveno Mombello","&nbsp;<p><strong>E-mail:</strong> <p>bdtlavenomombello@libero.it<p style=""text-align: left;""><strong>Indirizzo:</strong> <p style=""text-align: left;"">Piazza del Carroccio, 21014 Laveno Mombello<br /> &nbsp;",8.623815,45.889619
"Gallarate &dash; Associazione Banca del Tempo Gallarate","<img src=\""https://i2.wp.com/www.associazionenazionalebdt.it/wp-content/uploads/2016/06/Logo-Besnate-1.jpg?resize=150%2C150\"" />ย ",8.79057,45.65953
"Carnate &dash; Banca del Tempo Carnate","<img src=\""https://i0.wp.com/www.associazionenazionalebdt.it/wp-content/uploads/2015/12/Image_coming_soon.jpg?resize=150%2C150\"" />dalle ore 16:00 alle ore 18:00",9.37825,45.649258
"Melegnano &dash; Assiociazione Culturale Cascina Santa Brera","&nbsp;<p><strong>Telefono:</strong> <p>+39 02 308 74 79<p><strong>E-mail:</strong><p> giuliana.piccolo@gmail.com<p style=""text-align: left;""><strong>Indirizzo:</strong> <p style=""text-align: left;"">Via Dezza 55/E, 20077 Melegnano<br /> &nbsp;",9.327834,45.358127
"Valmadrera &dash; Banca del Tempo di Valmadrera","<img src=\""https://i2.wp.com/www.associazionenazionalebdt.it/wp-content/uploads/2016/01/Logo-Valmadrera.jpg?resize=150%2C150\"" />Ti aspettiamo non mancare!!!</blockquote>",9.360401,45.846906
"Torno &dash; Banca del Tempo &quote;GiroGiroTempo&quote;","&nbsp;<p><strong>E-mail:</strong> <p>girogirotempo@virgilio.it<p><strong>Sito internet:</strong> <p>www.girogirotempo.it<p style=""text-align: left;""><strong>Indirizzo:</strong> <p style=""text-align: left;"">Via Roma 25, 22020 Torno<br /> &nbsp;",9.115223,45.856508
"Tavazzano &dash; Banca del Tempo di Tavazzano con Villavesco","<img src=\""https://i0.wp.com/www.associazionenazionalebdt.it/wp-content/uploads/2016/01/Logo-Tavazzano.jpg?resize=150%2C150\"" />dalle ore 21:00 alle ore 23:00",9.40562,45.32919
"Saronno &dash; Banca del Tempo di Saronno","<img src=\""https://i1.wp.com/www.associazionenazionalebdt.it/wp-content/uploads/2016/01/Logo-Saronno.jpg?resize=150%2C150\"" /></strong>",9.047043,45.626411
"Rozzano &dash; Banca del Tempo Eโฆ.ROZZANO","<img src=\""https://i0.wp.com/www.associazionenazionalebdt.it/wp-content/uploads/2016/01/Logo-Rozzano.jpg?resize=150%2C150\"" />dalle ore 16:30 alle ore 18:00",9.158112,45.38442
"Rosate &dash; Banca del Tempo Qualamano","<img src=\""https://i2.wp.com/www.associazionenazionalebdt.it/wp-content/uploads/2016/01/Logo-Rosate.jpg?resize=150%2C150\"" /><br /> ",9.017163,45.349877
"Zibido San Giacomo &dash; Banca del Tempo Il tempo non รจ denaro","<img src=\""https://i0.wp.com/www.associazionenazionalebdt.it/wp-content/uploads/2015/12/Image_coming_soon.jpg?resize=150%2C150\"" /><br /> ",9.105983,45.360141
"Rho &dash; Banca del Tempo Rho","&nbsp;<p><strong>Telefono:</strong> <p>+39 02 908 707 12<p><strong>E-mail:</strong> <p>bancadeltempo.rho@gmail.com<p style=""text-align: left;""><strong>Indirizzo:</strong> <p style=""text-align: left;"">Via Meda 20, 20017 Rho<br /> &nbsp;",9.041432,45.52634
"Pero &dash; Banca del Tempo &quote;PeRhoLร โฆc&#8217;รจ&quote;","<img src=\""https://i0.wp.com/www.associazionenazionalebdt.it/wp-content/uploads/2015/12/Image_coming_soon.jpg?resize=150%2C150\"" />dalle ore 15:00 alle ore 18:00<br /> ",9.08363,45.507716
"Olgiate Molgora &dash; Banca del Tempo Olgiate Molgora","<img src=\""https://i0.wp.com/www.associazionenazionalebdt.it/wp-content/uploads/2016/01/Logo-Olgiate-Molgora.jpg?resize=150%2C150\"" /><strong></strong>",9.40307,45.72888
"Milano &dash; Banca del Tempo Comin","<img src=\""https://i2.wp.com/www.associazionenazionalebdt.it/wp-content/uploads/2016/01/Logo-Comin.jpg?resize=150%2C150\"" /><strong></strong>",9.22356,45.497544
"Chiaravalle &dash; Banca del Tempo Milano Sud","<img src=\""https://i2.wp.com/www.associazionenazionalebdt.it/wp-content/uploads/2016/01/Logo-Milano-Sud.jpg?resize=150%2C150\"" /><strong></strong>",9.239282,45.417647
"Milano &dash; Banca del Tempo Ora x Ora","<img class=""alignleft size-thumbnail wp-image-7573"" src=\""https://i0.wp.com/www.associazionenazionalebdt.it/wp-content/uploads/2016/01/Logo-Ora-x-Ora-Milano-2.jpg?resize=150%2C150\"" /><strong></strong>",9.078344,45.454141
"Milano &dash; Banca del Tempo &quote;4 Corti&quote;","&nbsp;<p><strong>Telefono:</strong> <p>+39 328 563 60 43<p><strong>E-mail:</strong> <p>bdt4corti@gmail.com<p><strong>Sito internet:</strong> <p>www.bdt4corti.blogspot.it<p style=""text-align: left;""><strong>Indirizzo:</strong> <p style=""text-align: left;"">Via Anton Giulio Barrili 21,ย c/o Lab. Sociale, 20141 Milano<br /> &nbsp;",9.177585,45.434018
"Milano &dash; Banca del Tempo Passatempo","<img src=\""https://i0.wp.com/www.associazionenazionalebdt.it/wp-content/uploads/2015/12/Image_coming_soon.jpg?resize=150%2C150\"" /><br /> ",9.224757,45.475053
"Melegnano &dash; Banca del Tempo Melegnano","<img src=\""https://i1.wp.com/www.associazionenazionalebdt.it/wp-content/uploads/2016/01/Logo-Melegnano.jpg?resize=150%2C150\"" /><strong></strong>",9.320292,45.3582
"Inzago &dash; Banca del Tempo &quote;Tempo Idea&quote;","<img src=\""https://i0.wp.com/www.associazionenazionalebdt.it/wp-content/uploads/2016/01/Logo-Inzago.jpg?resize=150%2C150\"" /></strong>",9.483108,45.541634
"Ghedi &dash; Banca del Tempo Moka","<img src=\""https://i0.wp.com/www.associazionenazionalebdt.it/wp-content/uploads/2016/01/Logo-Moka.jpg?resize=150%2C150\"" /><strong></strong>",10.266142,45.401523
"Cremona &dash; Banca del Tempo La Danza delle Ore","<img src=\""https://i2.wp.com/www.associazionenazionalebdt.it/wp-content/uploads/2016/01/Logo-Cremona-Danza-delle-ore.jpg?resize=150%2C150\"" /><strong></strong>",10.032444,45.138435
"Como &dash; Banca del Tempo Il Pozzo dei Desideri","<img src=\""https://i0.wp.com/www.associazionenazionalebdt.it/wp-content/uploads/2016/01/Logo-Como-Pozzo-dei-desideri.jpg?resize=150%2C150\"" /><strong></strong>",9.084335,45.802969
"Cusago &dash; Banca del Tempo di Cusago","<img src=\""https://i1.wp.com/www.associazionenazionalebdt.it/wp-content/uploads/2016/01/Logo-Cusago.jpg?resize=150%2C150\"" /><strong></strong>",9.032563,45.448598
"Cernusco sul Naviglio &dash; Banca del Tempo Vivere il Tempo &dash; Auser","<img src=\""https://i0.wp.com/www.associazionenazionalebdt.it/wp-content/uploads/2016/01/Logo-Vivere-il-Tempo.jpg?resize=150%2C150\"" />dalle ore 16:30 alle ore 18:30",9.328275,45.527347
"Cassina De&#8217; Pecchi &dash; Banca del Tempo Cassina De&#8217; Pecchi","<img src=\""https://i0.wp.com/www.associazionenazionalebdt.it/wp-content/uploads/2015/12/Image_coming_soon.jpg?resize=150%2C150\"" /><br /> ",9.364548,45.515238
"Caponago &dash; Banca del Tempo Caponago","<img src=\""https://i0.wp.com/www.associazionenazionalebdt.it/wp-content/uploads/2016/01/Logo-Caponago.jpg?resize=150%2C150\"" />Via S. Pellico 16, 20867 Caponago",9.383614,45.563396
"Vimercate &dash; Banca del Tempo 25esima ora","<img src=\""https://i0.wp.com/www.associazionenazionalebdt.it/wp-content/uploads/2016/01/Logo-Vimercate-25ma-Ora.jpg?resize=150%2C150\"" /><strong></strong>",9.37064,45.61267
"Correzzana, Lesmo e Camparada &dash; Banca del Tempo Cronoteca","<img class=""wp-image-8807 alignleft"" src=\""https://i2.wp.com/www.associazionenazionalebdt.it/wp-content/uploads/2016/01/Logo-Cronoteca2.jpg?resize=450%2C150\"" />dalle 10:30 alle 11:30",9.307933,45.650236
"Buccinasco &dash; Banca del Tempo e dei Saperi","<img src=\""https://i0.wp.com/www.associazionenazionalebdt.it/wp-content/uploads/2016/01/Logo-Buccinasco.jpg?resize=150%2C150\"" />dalle ore 16:00 alle ore 18:00",9.108622,45.420838
"Bresso &dash; Banca del Tempo Solotempo Auser","<img src=\""https://i0.wp.com/www.associazionenazionalebdt.it/wp-content/uploads/2016/01/Logo-Bresso.jpg?resize=150%2C150\"" /><strong></strong>",9.186757,45.536939
"Arese &dash; Banca del Tempo Arese","&nbsp;<p><strong>E-mail:</strong> <p>bdt.arese@libero.it<p><strong>Indirizzo:</strong> <p>Via Resegone 14, 20020 Arese&nbsp;",9.036571,45.569958
".Coordinamento Lombardo Banche del Tempo","<img class=""alignleft wp-image-7575"" src=\""https://i1.wp.com/www.associazionenazionalebdt.it/wp-content/uploads/2016/01/Logo-Coordinamento-Milano-e-Provincia-1.jpg?resize=450%2C150\"" />ย ",9.219414,45.490856
"Trento &dash; Banca del Tempo Gaia","<img src=\""https://i0.wp.com/www.associazionenazionalebdt.it/wp-content/uploads/2016/01/Logo-Trento-Gaia.jpg?resize=150%2C150\"" /><strong></strong>",11.152745,46.069141
"Pozza di Fassa &dash; Banca del Temp Ladina","<img src=\""https://i0.wp.com/www.associazionenazionalebdt.it/wp-content/uploads/2015/12/Image_coming_soon.jpg?resize=150%2C150\"" /><strong></strong>",11.684441,46.428529
"Levico Terme &dash; Banca del Tempo Selvadega","<img src=\""https://i0.wp.com/www.associazionenazionalebdt.it/wp-content/uploads/2015/12/Image_coming_soon.jpg?resize=150%2C150\"" />",11.31885,46.01519
"Predazzo &dash; Banca del Tempo Val di Fiemme","<img src=\""https://i0.wp.com/www.associazionenazionalebdt.it/wp-content/uploads/2015/12/Image_coming_soon.jpg?resize=150%2C150\"" /></strong>",11.602437,46.312589
"Bosentino &dash; Banca del Tempo Vigolana","<img src=\""https://i0.wp.com/www.associazionenazionalebdt.it/wp-content/uploads/2016/01/Logo-Vigolana.jpg?resize=150%2C150\"" /><strong></strong>",11.222167,46.001361
"Sopramonte &dash; Banca del Tempo Bondone","<img src=\""https://i0.wp.com/www.associazionenazionalebdt.it/wp-content/uploads/2015/12/Image_coming_soon.jpg?resize=150%2C150\"" /><strong></strong>",11.059987,46.070296
"Storo &dash; Banca del Tempo Il Chiese","<img src=\""https://i0.wp.com/www.associazionenazionalebdt.it/wp-content/uploads/2015/12/Image_coming_soon.jpg?resize=150%2C150\"" /><strong></strong>",10.576357,45.850515
"Bolzano &dash; Banca del Tempo Bolzano &quote;Gries-ยญSan Quirino&quote;","<img class=""alignleft size-thumbnail wp-image-7582"" src=\""https://i2.wp.com/www.associazionenazionalebdt.it/wp-content/uploads/2015/12/Logo-Bolzano-1.jpg?resize=150%2C150\"" />ย ",11.334201,46.50394
"Sant&#8217;Orsola Terme &dash; Banca del Tempo Valle dei Mรฒcheni Bersntol","<img src=\""https://i1.wp.com/www.associazionenazionalebdt.it/wp-content/uploads/2015/12/Logo-Valle-dei-Mรฒcheni-Bersntol.jpg?resize=150%2C150\"" /><strong></strong>",11.303199,46.108239
"Pergine Valsugana &dash; Banca del Tempo Amici di Pergine","<img src=\""https://i0.wp.com/www.associazionenazionalebdt.it/wp-content/uploads/2015/12/Image_coming_soon.jpg?resize=150%2C150\"" />",11.249876,46.075173
"Borgo Valsugana &dash; Banca del Tempo Borgo Valsugana","<img src=\""https://i0.wp.com/www.associazionenazionalebdt.it/wp-content/uploads/2015/12/Image_coming_soon.jpg?resize=150%2C150\"" /></strong>",11.460543,46.053557
"Caldonazzo &dash; Banca del Tempo dei Laghi","<img src=\""https://i1.wp.com/www.associazionenazionalebdt.it/wp-content/uploads/2015/12/Logo-Caldonazzo-Laghi.jpg?resize=150%2C150\"" /></strong>",11.262163,45.991744
"Trento &dash; Rete Trentina Banche del Tempo","<img class=""aligncenter wp-image-7984"" src=\""https://i1.wp.com/www.associazionenazionalebdt.it/wp-content/uploads/2015/12/Logo-Rete-Trentina.jpg?resize=450%2C150\"" /></strong>",11.152745,46.069141
"Arezzo &dash; Banca del Tempo &quote;Un cerchio che si allarga&quote;","&nbsp;<p><strong>Referente:ย </strong><p>Francesca Costanzo<p><strong>Telefono:ย </strong><p>+39 057 537 75 13<p><strong>Fax:ย </strong><p>+39 057 537 71 71<p><strong>E-mail:</strong> <p>bancadentempo.arezzo@gmail.com<p><strong>Sito Internet:</strong> <p>www.bancadeltempo.arezzo.it<p><strong>Indirizzo:</strong> <p>Via S.Lorentino 28, 52100 Arezzo&nbsp;",11.877632,43.468084
"Pontedera &dash; Banca del Tempo Giratempo","<img src=\""https://i2.wp.com/www.associazionenazionalebdt.it/wp-content/uploads/2015/12/Logo-Giratempo.jpg?resize=150%2C150\"" />dalle ore 17:00 alle ore 19:00",10.636359,43.662516
"Borgo San Lorenzo &dash; Banca del Tempo nel Mugello &quote;Il Giardino delle Ore&quote;","<img src=\""https://i0.wp.com/www.associazionenazionalebdt.it/wp-content/uploads/2015/12/Logo-Borgo-San-Lorenzo.jpg?resize=150%2C150\"" />alle ore 20.30 presso la sede in Piazza Dante 33<br />",11.386111,43.956111
"Prato &dash; Banca del Tempo &quote;Il Tempo in Banca&quote;","&nbsp;<p><strong>Referente:ย </strong><p>Angela Sassu<p><strong>Telefono:ย </strong><p>+39 057 458 31 12<p><strong>E-mail:</strong> <p>iltempoinbanca@yahoo.it<p style=""text-align: left;""><strong>Indirizzo:</strong> <p style=""text-align: left;"">59100 Prato<br /> &nbsp;",11.102228,43.877705
"Castelnuovo Val di Cecina &dash; Associazione &quote;Il Tempo Vola&quote;","&nbsp;<p><strong>Referente:ย </strong><p>Lorella Nardi<p><strong>Telefono:ย </strong><p>+39 058 863 146<p><strong>E-mail:</strong><p> lorella.nardi@inwind.it<p><strong>Indirizzo:</strong> <p>56041 Castelnuovo Val di Cecina&nbsp;",10.905809,43.208242
"San Miniato &dash; Banca del Tempo San Miniato","&nbsp;<p><strong>Referente:ย </strong><p>Vanna Profeti<p><strong>Telefono:ย </strong><p>+39 057 140 62 98<p><strong>E-mail:</strong> <p>profetivanna@libero.it<p><strong>Sito Internet:</strong> <p>www.comune.san-miniato.pi.it<p><strong>Indirizzo:</strong> <p>56028 San Miniato&nbsp;",10.85512,43.682964
"Pomarance &dash; Associazione &quote;Il Tempo Vola&quote;","&nbsp;<p><strong>Referente:ย </strong><p>Sabrina<p><strong>Telefono:ย </strong><p>+39 058 863 146<p><strong>E-mail:</strong> <p>sabrinabss@hotmail.com<p><strong>Indirizzo:</strong> <p>56045 Pomarance&nbsp;",10.872188,43.299041
"Pistoia &dash; Banca del Tempo Pistoia","<img src=\""https://i0.wp.com/www.associazionenazionalebdt.it/wp-content/uploads/2015/12/Image_coming_soon.jpg?resize=150%2C150\"" />",10.907901,43.949054
"Terni &dash; Banca del Tempo Terni","<img class=""alignleft wp-image-10285"" src=\""https://i1.wp.com/www.associazionenazionalebdt.it/wp-content/uploads/2015/12/Logo-Terni.jpg?resize=450%2C150\"" />dalle ore 16:00 alle ore 18:00",12.657451,42.564148
"Marsciano &dash; Banca del Tempo Marsciano","&nbsp;<p><strong>Referente:ย </strong><p>Marchetti Loretta<p><strong>Telefono:ย </strong><p>+39 346 705 12 14<p><strong>E-mail:</strong> <p>bdtmarsciano@gmail.com<p><strong>Sito Internet:</strong> <p>BancadelTempodiMarsciano<p><strong>Indirizzo:</strong> <p>Via Trento 3, 06055 Marsciano&nbsp;",12.31917,42.95008
"Foligno &dash; Banca del Tempo Diamoci Tempo","<img src=\""https://i0.wp.com/www.associazionenazionalebdt.it/wp-content/uploads/2015/12/Image_coming_soon.jpg?resize=150%2C150\"" />Via Guglielmo Oberdan 119, 06034 Foligno",12.708622,42.955631
"Monopoli &dash; Banca del Tempo &quote;Le Contrade&quote;","&nbsp;<p><strong>Referente:ย </strong><p>Mariella Bruno<p><strong>Telefono:ย </strong><p>+39 080 937 21 04<p><strong>E-mail:</strong> <p>bdtmonopoli@le-contrade.it<p style=""text-align: left;""><strong>Indirizzo:</strong> <p style=""text-align: left;"">Via Ricciotti 5, 70043 Monopoli<br /> &nbsp;",17.299822,40.953061
"Locorotondo &dash; Banca del Tempo &quote;Le Contrade&quote;","&nbsp;<p><strong>Referente:ย </strong><p>Raffaele De Mitri<p><strong>Telefono:ย </strong><p>+39 080 431 60 72<p><strong>E-mail:</strong> <p>bdtlocorotondo@le-contrade.it<p><strong>Indirizzo:</strong> <p>Via Sant&#8217;Elia 27, 70010 Locorotondo&nbsp;",17.32597,40.75732
"Gioia del Colle &dash; Banca del Tempo &quote;Kairos&quote; &dash; Centro di ascolto &quote;Dal silenzio alla Parola&quote;","&nbsp;<p><strong>E-mail:</strong> <p>bancadeltempokairos@gmail.com<p><strong>Indirizzo:</strong> <p>Via Sannazzano 15, 70023 Gioia del Colle&nbsp;",16.917806,40.798533
"Trinitapoli &dash; Banca del Tempo &quote;Il Tempo stringe&quote;","&nbsp;<p><strong>Referente:ย </strong><p>Mariella Montanaro<p><strong>Telefono:ย </strong><p>+39 088 336 36 20<p><strong>E-mail:</strong> <p>montanaro@comune.trinitapoli.bt.it<p style=""text-align: left;""><strong>Indirizzo:</strong> <p style=""text-align: left;"">Piazza Umberto Iยฐ 10, 76015 Trinitapoliย <br /> &nbsp;",16.08738,41.35894
"Taranto &dash; Banca del Tempo &quote;Tempo del fare&quote;","&nbsp;<p><strong>Referente:ย </strong><p>Nino Nastasi<p><strong>E-mail:</strong> <p>tempodelfare@gmail.com<p><strong>Sito Internet:</strong> <p>www.tempodelfare.it<p><strong>Indirizzo:</strong> <p>Via Bari 10, 74121 Taranto&nbsp;",17.270352,40.465209
"Ostuni &dash; Banca del Tempo Kairos Vivi il Tempo","<img src=\""https://i1.wp.com/www.associazionenazionalebdt.it/wp-content/uploads/2015/12/Logo-Ostuni.jpg?resize=150%2C150\"" />Via Eugenio Trinchera 39, 72017 Ostuni",17.576972,40.725596
"Mesagne &dash; Banca del Tempo Mesagne","&nbsp;<p><strong>Referente:ย </strong><p>Davide Coluccia<p><strong>Telefono:ย </strong><p>+39 328 141 74 93<p><strong>E-mail:</strong> <p>bancadeltempomesagne@gmail.com<p><strong>Indirizzo:</strong> <p>Via Sabotino 34, 72023 Mesagne&nbsp;",17.816968,40.563796
"Maglie &dash; Banca del Tempo RivalutiAmo il Tempo (Progetto genitori)","<img src=\""https://i0.wp.com/www.associazionenazionalebdt.it/wp-content/uploads/2015/12/Logo-Maglie.jpg?resize=150%2C150\"" />Via Guido Rossa 13, c/o Asilo Nido, 73024 Maglie",18.30331,40.114825
"Cisternino &dash; Banca del Tempo &quote;La clessidra solidale&quote;","&nbsp;<p><strong>E-mail:</strong> <p>info@laclessidrasolidale.org<p style=""text-align: left;""><strong>Indirizzo:</strong> <p style=""text-align: left;"">Via Dante 56, 72014 Cisternino<br /> &nbsp;",17.4291,40.74071
"Barletta &dash; Banca del Tempo &quote;Quelli cheโฆ.il tempo&quote;","&nbsp;<p><strong>Referente:ย </strong><p>Lidia Rutigliano<p><strong>Telefono:ย </strong><p>+39 0883 891 967<p><strong>E-mail:</strong> <p>info@bancadeltempobarletta.it<p><strong>Sito Internet:</strong> <p>www.bancadeltempobarletta.it<p><strong>Indirizzo: </strong><p>Via G. Mameli 5, 76121 Barletta&nbsp;",16.276105,41.317034
"Bari &dash; Banca del Tempo &quote;Il Tempo delle Donne&quote;","&nbsp;<p><strong>Referente:ย </strong><p>Antonietta Ragone<p><strong>Telefono:ย </strong><p>+39 080 556 67 12<p><strong>E-mail:</strong> <p>iltempodelledonne@email.it<p><strong>Sito Internet:</strong> <p>www.tempodonne.it<p><strong>Indirizzo:</strong> <p>Via Fanelli 228/T, c/o Afhass, 70100 Bari&nbsp;",16.883393,41.092764
"Bari &dash;  Banca del Tempo Vola in Tempo","<img src=\""https://i0.wp.com/www.associazionenazionalebdt.it/wp-content/uploads/2015/12/Logo-Bari.jpg?resize=150%2C150\"" />dalle ore 17:00 alle ore 19:00",16.874255,41.107077
"Verona &dash; Banca del Tempo &quote;La Clessidra&quote;","&nbsp;<p><strong>Referente:ย </strong><p>Susanna Bernardelli<p><strong>E-mail:</strong> <p>laclessidra.bdt@gmail.com<p><strong>Sito Internet:</strong> <p>www.laclessidrabdt.it<p><strong>Indirizzo:</strong> <p>Piazza Roma 8, 37135 Verona&nbsp;",10.99537,45.383001
"Maserada sul Piave &dash; Banca del Tempo &quote;La ballata delle ore&quote;","&nbsp;<p><strong>Referente:ย </strong><p>Emanuela Setti<p><strong>Telefono:ย </strong><p>+39 380 532 92 62<p><strong>E-mail:</strong> <p>emanuela.setti@yahoo.it<p><strong>Sito Internet:</strong> <p>www.maserada.com/bancatempo<p><strong>Indirizzo:</strong> <p>Via Caccianiga 77, c/o palazzo Don Romero, 31052 Maserada sul Piave&nbsp;",12.31929,45.74941
".Coordinamento Banche del Tempo Terme Euganee Padova","&nbsp;<p><strong>Referente: </strong><p>Giampaolo Bedendo<p><strong>E-mail:</strong> <p>gbedendo@alice.it<p><strong>Sito Internet:</strong> <p>www.ilmiotempo.it<p><strong>Indirizzo:</strong> <p>35141 Padova&nbsp;",11.857706,45.402837
"Conegliano &dash; Banca del Tempo Conegliano","&nbsp;<p><strong>Referente:ย </strong><p>Carla Varetto<p><strong>Telefono:ย </strong><p>+39 320 432 14 55<p><strong>Indirizzo:</strong> <p>Via Spellanzon 15, 31015 Conegliano&nbsp;",12.288526,45.879272
"Bassano del Grappa &dash; Banca del Tempo Bassano del Grappa","&nbsp;<p><strong>Telefono:ย </strong><p>+39 0424 521 483<p><strong>E-mail:</strong> <p>info@bancadeltempobassano.it<p><strong>Sito Internet:</strong> <p>www.bancadeltempobassano.it<p><strong>Indirizzo:</strong> <p>Via Schiavonetti 8, c/o l&#8217;associazione &#8216;Questa Cittร &#8217;, 36061 Bassano del Grappa&nbsp;",11.73174,45.76629
"Valdagno &dash; Banca del Tempo by Alveare","&nbsp;<p><strong>Referente:ย </strong><p>Bruno Scremin<p><strong>Telefono:ย </strong><p>+39 044 540 86 01<p><strong>E-mail:</strong> <p>bdtal@libero.it<p><strong>Indirizzo:</strong> <p>Viale Regina Margherita 42, Cittadella sociale, 36078 Valdagno&nbsp;",11.30189,45.63866
"Verona &dash; Banca del Tempo &quote;Per la pace chiusa&quote;","&nbsp;<p><strong>Referente:ย </strong><p>Francesca Borgo<p><strong>Telefono:ย </strong><p>+39 345 604 08 76<p><strong>E-mail:</strong> <p>bancatempopace@gmail.com<p><strong>Indirizzo:</strong> <p>Viale A. Palladio 4, 37138 Verona&nbsp;",10.979303,45.430963
"Verona &dash; Banca del Tempo Ora X Ora","<img src=\""https://i0.wp.com/www.associazionenazionalebdt.it/wp-content/uploads/2015/12/Logo-Ora-x-Ora-Verona.jpg?resize=150%2C150\"" />Via Monte Cillario 12, c/o 3ยฐ circ, 37124 Verona",10.94811,45.481344
"Verona &dash; Banca del Tempo &quote;Tu per Me io per Te&quote;","&nbsp;<p><strong>Referente:ย </strong><p>Elena Sonego<p><strong>Telefono:ย </strong><p>+39 045 807 85 37<p><strong>E-mail:</strong> <p>banca.tempo@comune.verona.it<p><strong>Indirizzo:</strong> <p>Largo Pasubio 6 &dash; ยญ1^ circ, 37121 Verona&nbsp;",10.994963,45.437271
"Piovene Rocchette &dash; Banca del Tempo Piovene Rocchette","&nbsp;<p><strong>Referente:ย </strong><p>Roberto Rossi<p><strong>Telefono:ย </strong><p>+39 044 565 10 56<p><strong>Indirizzo:</strong> <p>Via Libertร  8, 36013 Piovene Rocchette&nbsp;",11.431214,45.760767
"Montebelluna &dash; Banca del Tempo e dei Saperi","<img src=\""https://i2.wp.com/www.associazionenazionalebdt.it/wp-content/uploads/2015/12/Logo-BdT-e-dei-Saperi.jpg?resize=150%2C150\"" />dalle ore 09:30 alle ore 11:00",12.045871,45.774195
"Colle Umberto &dash; Banca del Tempo &quote;Qua la mano!&quote;","&nbsp;<p><strong>Referente:ย </strong><p>Marco Coletti<p><strong>Telefono:ย </strong><p>+39 347 278 83 63<p><strong>E-mail:</strong> <p>qualamanobdt@virgilio.it<p><strong>Indirizzo:</strong> <p>Via G. Garibaldi 6, 31014 Colle Umberto&nbsp;",12.341771,45.943849
"Arzignano &dash; Banca del Tempo di Arzignano","<img src=\""https://i1.wp.com/www.associazionenazionalebdt.it/wp-content/uploads/2015/12/Logo-Arzignano.jpg?resize=150%2C150\"" />dalle ore 11:00 alle ore 12:00",11.331808,45.520203
"Veneto &dash; .Coordinamento triveneto &quote;Associazione Girotondo 0re&quote;","&nbsp;<p><strong>Telefono:</strong> <p>+39 044 233 08 71<p><strong>E-mail:</strong> <p>veneto@Kronoscoordinamento.it<p><strong>Sito Internet:</strong> <p>www.girotondodelleore.it<p><strong>Indirizzo:</strong> <p>31022 Preganziol&nbsp;",12.235132,45.602722
"Termini Imerese &dash; Banca del Tempo Himerense","<img src=\""https://i2.wp.com/www.associazionenazionalebdt.it/wp-content/uploads/2015/12/Logo-Himerense.jpg?resize=150%2C150\"" /><strong></strong>",13.696189,37.984023
"Siracusa &dash; Banca del Tempo &quote;Tempo solidale&quote;","<img class=""alignleft size-thumbnail wp-image-7565"" src=\""https://i0.wp.com/www.associazionenazionalebdt.it/wp-content/uploads/2015/12/Image_coming_soon.jpg?resize=150%2C150\"" /><strong></strong>",15.287816,37.090632
"Patti &dash; Banca del Tempo Ora รจ Tempo","<img src=\""https://i0.wp.com/www.associazionenazionalebdt.it/wp-content/uploads/2015/12/Logo-Patti.jpg?resize=150%2C150\"" /></strong>",14.966482,38.153346
"Palermo &dash; Banca del Tempo &quote;Multiculturale&quote;","&nbsp;<p><strong>Referente:ย </strong><p>Maria Muratore<p><strong>E-mail:ย </strong><p>bdtmulticulturale@sosrazzismosicilia.it<p><strong>Indirizzo:</strong> <p>Vicolo Infermeria dei Cappuccini 3, 90134 Palermo&nbsp;",13.35773,38.1129
"Palermo &dash; Banca del Tempo AAA Tempo Libero Offresi","<img class=""alignleft size-thumbnail wp-image-7569"" src=\""https://i0.wp.com/www.associazionenazionalebdt.it/wp-content/uploads/2015/12/Logo-AAA-Tempo-Libero-Offresi-1.jpg?resize=150%2C150\"" />ย ",13.36407,38.12011
"Palermo &dash; Associazione Anteas Palermo","&nbsp;<p><strong>Referente:ย </strong><p>Sebastiano Maggio<p><strong>E-mail:</strong> <p>anteaspalermo@libero.it<p><strong>Indirizzo:</strong> <p>Via Villa Heloise 10, 90143 Palermo&nbsp;",13.346354,38.139488
"Palermo &dash; Banca del Tempo &quote;Tempo Prezioso&quote;","&nbsp;<p><strong>Referente:ย </strong><p>Enzo Molinelli<p><strong>Telefono: ย </strong><p>+39 320 393 49 78<p><strong>E-mail:</strong> <p>tempo.prezioso@libero.it<p><strong>Indirizzo:</strong> <p>Via Enrico Fermi 8, 90145 Palermo&nbsp;",13.334725,38.126835
"Fiumefreddo di Sicilia &dash; Banca del Tempo Meridiana Time","<img class=""alignleft size-thumbnail wp-image-7571"" src=\""https://i1.wp.com/www.associazionenazionalebdt.it/wp-content/uploads/2015/12/Logo-Meridiana-Time-1.jpg?resize=150%2C150\"" /><strong></strong>",15.195887,37.79279
"Enna &dash; Banca del Tempo Enna","<img src=\""https://i1.wp.com/www.associazionenazionalebdt.it/wp-content/uploads/2015/12/Logo-Enna-150x150.jpg?resize=150%2C150\"" /></strong>",14.275191,37.565555
"Cefalรน &dash; Banca del Tempo Ama il tuo tempo","<img src=\""https://i0.wp.com/www.associazionenazionalebdt.it/wp-content/uploads/2015/12/Logo-Ama-il-tuo-tempo.jpg?resize=150%2C150\"" />90015 Cefalรน",14.017444,38.033705
"Catania &dash; Banca del Tempo Il Tempo che vuoi","<img class=""alignleft size-thumbnail wp-image-7567"" src=\""https://i1.wp.com/www.associazionenazionalebdt.it/wp-content/uploads/2015/12/Logo-Il-Tempo-che-Vuoi-Catania-1.jpg?resize=150%2C150\"" /><strong></strong>",15.073631,37.542243
"Catania &dash; Banca del Tempo &quote;Clepsidra&quote;","&nbsp;<p><strong>Referente:ย </strong><p>Santa Agata Pasceri<p><strong>Telefono: ย </strong><p>+39 095 444 119<p><strong>E-mail:</strong> <p>bdtclepsidra@virgilio.it<p><strong>Indirizzo:</strong> <p>Via Caronda 223, 95128 Catania&nbsp;",15.084357,37.519029
"Caltagirone &dash; Banca del Tempo Caltagirone","&nbsp;<p><strong>Referente:ย </strong><p>Angelina Urzรฌ<p><strong>Telefono: ย </strong><p>+39 093 354 361<p><strong>E-mail:</strong> <p>bdtempo@gmail.com<p><strong>Indirizzo:</strong> <p>95041 Caltagirone&nbsp;",14.512607,37.238093
"Acireale &dash; Banca del Tempo &quote;Vola&quote;","&nbsp;<p><strong>Referente:ย </strong><p>Lina Sciuto<p><strong>Telefono: ย </strong><p>+39 095 765 15 69<p><strong>E-mail:</strong> <p>rosamediterranea1@alice.it<p><strong>Indirizzo:</strong> <p>95024 Acireale&nbsp;",15.166736,37.607802
"Alcamo &dash; Banca del Tempo Insieme per la famiglia","&nbsp;<p><strong>Referente:ย </strong><p>Mariella Corvitto<p><strong>E-mail:</strong> <p>famiglie@hotmail.it<p><strong>Indirizzo:</strong> <p>Via delle Rose 14, 91011 Alcamo&nbsp;",12.949011,37.97655
"Alรฌ Terme &dash; Banca del Tempo Insieme รจ meglio","<img class=""alignleft size-thumbnail wp-image-7560"" src=\""https://i1.wp.com/www.associazionenazionalebdt.it/wp-content/uploads/2015/12/Logo-Alรฌ-Terme.jpg?resize=150%2C150\"" />su appuntamento",15.418863,37.999302
"Termoli &dash; Banca del Tempo Generazioni in&#8230;tempo","<img src=\""https://i0.wp.com/www.associazionenazionalebdt.it/wp-content/uploads/2015/12/Image_coming_soon.jpg?resize=150%2C150\"" /><strong></strong>",14.98461,41.993681
"Venafro &dash; Banca del Tempo &quote;Il Cerchio blu&quote;","<img src=\""https://i0.wp.com/www.associazionenazionalebdt.it/wp-content/uploads/2015/12/Logo-Il-cerchio-blu.jpg?resize=150%2C150\"" /><strong>Referente:</strong> ",14.045586,41.487806
"Senigallia &dash; Banca del Tempo Senigallia","<img src=\""https://i1.wp.com/www.associazionenazionalebdt.it/wp-content/uploads/2015/12/Logo-Senigallia.jpg?resize=150%2C150\"" />presso il Centro Sociale Saline",13.226767,43.707657
"Recanati &dash; Banca del Tempo &quote;MOICA&quote;","&nbsp;<p><strong>Referente:</strong> <p>Elisa Cingolani<p><strong>Telefono: ย </strong><p>+39 071 757 34 61<p><strong>E-mail:</strong> <p>moicamarche@alice.it<p><strong>Sito Internet:</strong> <p>www.moica-marche.it<p style=""text-align: left;""><strong>Indirizzo:ย </strong> <p style=""text-align: left;"">Via Calcagni 33, 62019 Recanati<strong><br /> </strong>&nbsp;",13.551757,43.402213
"Pesaro &dash; Banca del Tempo Pantano Miralfiore","<img src=\""https://i1.wp.com/www.associazionenazionalebdt.it/wp-content/uploads/2015/12/Logo-Miralfiore-Pesaro.jpg?resize=150%2C150\"" /><strong></strong>",12.90588,43.902132
"Macerata &dash; Banca del Tempo Macerata","<img src=\""https://i2.wp.com/www.associazionenazionalebdt.it/wp-content/uploads/2015/12/Logo-Macerata.jpg?resize=150%2C150\"" />ย ",13.472237,43.29154
"Ascoli Piceno &dash; Banca del Tempo Ascoli Piceno","&nbsp;<p><strong>Referente:</strong> <p>Giovanna Martelli<p><strong>Telefono: ย </strong><p>+39 073 624 01 29<p><strong>E-mail:</strong><p> giorgimanuela@libero.it<p style=""text-align: left;""><strong>Indirizzo:ย </strong> <p style=""text-align: left;"">Via B.Tucci 3, 63100 Ascoli Piceno<strong><br /> </strong>&nbsp;",13.570448,42.85975
"Ancona &dash; Banca del Tempo di Ancona","&nbsp;<p><strong>Referente:</strong> <p>Stella Negri<p><strong>E-mail:</strong><p> bancadeltempoancona@yahoo.it<p><strong>Sito Internet:</strong><p> bancadeltempoancona.wordpress.com<p style=""text-align: left;""><strong>Indirizzo:ย </strong> <p style=""text-align: left;"">Via Pizzecolli 1, 60121 Ancona<strong><br /> </strong>&nbsp;",13.510973,43.620164
"Vado Ligure &dash; Banca del Tempo &quote;La Meridiana&quote;","<img src=\""https://i1.wp.com/www.associazionenazionalebdt.it/wp-content/uploads/2015/12/Logo-Meridiana-Vado-Ligure.jpg?resize=150%2C150\"" />dalle ore 16:00 alle ore 18:00",8.436364,44.268181
"Savona &dash; Banca del Tempo di Savona","<img src=\""https://i1.wp.com/www.associazionenazionalebdt.it/wp-content/uploads/2015/12/Logo-Savona.jpg?resize=150%2C150\"" /><br /> </strong>",8.47488,44.304303
"Sanremo &dash; Banca del Tempo di Sanremo","&nbsp;<p><strong>Referente:</strong> <p>Barbara Dromoska<p><strong>Telefono: ย </strong><p>+39 800 628 760<p style=""text-align: left;""><strong>Indirizzo:ย </strong> <p style=""text-align: left;"">Corso Garibaldi 1, 18038 Sanremo<strong><br /> </strong>&nbsp;",9.186516,45.465454
"Ortonovo &dash; Banca del Tempo di Luni","<img src=\""https://i0.wp.com/www.associazionenazionalebdt.it/wp-content/uploads/2015/12/Logo-Luni.jpg?resize=150%2C150\"" /><strong></strong>",10.020176,44.077651
"Chiavari &dash; Banca del Tempo &quote;Chiavarintempo&quote;","&nbsp;<p><strong>Telefono: ย </strong><p>+39 334 501 87 62<p><strong>E-mail:</strong> <p>bancatempochiavari@libero.it<p><strong>Sito Internet:</strong> <p>www.chiavarintempo.it<p style=""text-align: left;""><strong>Indirizzo:ย </strong> <p style=""text-align: left;"">Piazza Beato Giovanni Paolo II 1, 16043 Chiavari<strong><br /> </strong>&nbsp;",9.32905,44.343467
"Camogli &dash; Banca del Tempo di Camogli","<img src=\""https://i1.wp.com/www.associazionenazionalebdt.it/wp-content/uploads/2015/12/Logo-Camogli.jpg?resize=150%2C150\"" /><strong></strong>",9.155956,44.348101
"Genova &dash; Associazione &quote;Le Ore d&#8217;Argento&quote; Auser","<img src=\""https://i1.wp.com/www.associazionenazionalebdt.it/wp-content/uploads/2015/12/Logo-Auser-Genova-Banca-del-Tempo_.jpg?resize=150%2C150\"" /><br /> </strong>",8.923845,44.41637
"Tarquinia &dash; Banca del Tempo Il Nazzareno","<img src=\""https://i0.wp.com/www.associazionenazionalebdt.it/wp-content/uploads/2015/12/Image_coming_soon.jpg?resize=150%2C150\"" />Via Vecchia della Stazione 28a, 01016 Tarquinia",11.729245,42.239764
"Rieti &dash; Banca del Tempo Rieti","&nbsp;<p><strong>Referente:ย </strong><p>Desy Benvenuti<p><strong>Telefono: ย </strong><p>+39 0746 297 828<p><strong>E-mail:</strong> <p>info@informagiovanirieti.it<p><strong>Indirizzo:</strong> <p>Piazzale Angelucci 5, 02100 Rieti&nbsp;",12.892062,42.406008
"Monterotondo &dash; Banca del Tempo 5 Strade","<img src=\""https://i0.wp.com/www.associazionenazionalebdt.it/wp-content/uploads/2015/12/Image_coming_soon.jpg?resize=150%2C150\"" />Via Antonio Gramsci 122, 00015 Monterotondo",12.60759,42.053015
"Manziana &dash; Banca del Tempo Associazione Trova il Tempo","<img src=\""https://i0.wp.com/www.associazionenazionalebdt.it/wp-content/uploads/2015/12/Image_coming_soon.jpg?resize=150%2C150\"" />Largo Gioacchino Fara, 00066 Manziana",12.130203,42.130133
"Latina &dash; Banca del Tempo Associazione Tempo Amico","<img src=\""https://i0.wp.com/www.associazionenazionalebdt.it/wp-content/uploads/2015/12/Logo-Latina-Tempo-Amico.jpg?resize=150%2C150\"" />Casa del Volontariato &dash; Via Pier Luigi Nervi, c/o Centro Commerciale Latinafiori &dash; Torre 5 Gigli Scala A &dash; 04100 Latina",12.888313,41.456016
"Guidonia Montecelio &dash; Banca del Tempo Guidonia Montecelio","<img src=\""https://i1.wp.com/www.associazionenazionalebdt.it/wp-content/uploads/2015/12/Logo-Guidonia.jpg?resize=150%2C150\"" />Piazza Matteotti โ Torre Municipale 4ยฐ piano, 00012 Guidonia Montecelio",12.72562,41.999848
"Grottaferrata &dash; Banca del Tempo Grottaferrata","&nbsp;<p><strong>Referente:ย </strong><p>Rita Spinelli<p><strong>Telefono: ย </strong><p>+39 06 945 80 71<p><strong>E-mail:</strong><p> bancadeltempo@comune.grottaferrata.roma.it<p><strong>Indirizzo:</strong> <p>Via Verdi 12, 00046 Grottaferrata&nbsp;",12.667426,41.788365
"Cori &dash; Banca del Tempo di Cori","<img src=\""https://i0.wp.com/www.associazionenazionalebdt.it/wp-content/uploads/2015/12/Logo-Cori.jpg?resize=150%2C150\"" />Via della Libertร  26, 04010 Cori",12.912822,41.643115
"Civitavecchia &dash; Banca del Tempo di Civitavecchia","<img src=\""https://i0.wp.com/www.associazionenazionalebdt.it/wp-content/uploads/2015/12/Image_coming_soon.jpg?resize=150%2C150\"" />Largo Piccinato 10, 00053 Civitavecchia",11.807133,42.093333
"Cassino &dash; Banca del Tempo di Cassino","<img src=\""https://i0.wp.com/www.associazionenazionalebdt.it/wp-content/uploads/2015/12/Logo-Cassino.jpg?resize=150%2C150\"" />Via Gaetano Di Biasio, 03043 Cassino",13.825586,41.485424
"Aprilia &dash; Banca del Tempo Aprilia in Movimento","<img class=""alignleft wp-image-8529"" src=\""https://i2.wp.com/www.associazionenazionalebdt.it/wp-content/uploads/2015/12/Logo-Aprilia.jpg?resize=450%2C150\"" />dalle ore 16:00 alle ore 19:00",12.650813,41.58897
"Roma โ Municipio XV &dash; Banca del Tempo Insieme si puรฒ","<img src=\""https://i0.wp.com/www.associazionenazionalebdt.it/wp-content/uploads/2015/12/Image_coming_soon.jpg?resize=150%2C150\"" /><strong></strong>",12.481382,42.003267
"Roma โ Municipio XIV &dash; Banca del Tempo A.Ge. Romana","<img src=\""https://i0.wp.com/www.associazionenazionalebdt.it/wp-content/uploads/2015/12/Image_coming_soon.jpg?resize=150%2C150\"" /><strong></strong>",12.415412,41.920118
"Roma โ Municipio XII &dash; Banca del Tempo Tempo di Scambi","<img src=\""https://i0.wp.com/www.associazionenazionalebdt.it/wp-content/uploads/2015/12/Image_coming_soon.jpg?resize=150%2C150\"" /><strong></strong>",12.41008,41.86876
"Roma โ Municipio XII &dash; Banca del Tempo L&#8217;Anfora","<img src=\""https://i0.wp.com/www.associazionenazionalebdt.it/wp-content/uploads/2015/12/Image_coming_soon.jpg?resize=150%2C150\"" />",12.441525,41.879976
"Roma โ Municipio XI &dash; Banca del Tempo Corviale Mela Magica","<img src=\""https://i1.wp.com/www.associazionenazionalebdt.it/wp-content/uploads/2015/12/Logo-Corviale-melamagica.jpg?resize=150%2C150\"" /><strong></strong>",12.413331,41.850251
"Roma โ Municipio XI &dash; Banca del Tempo Marconi Auser Lazio","<img src=\""https://i0.wp.com/www.associazionenazionalebdt.it/wp-content/uploads/2015/12/Image_coming_soon.jpg?resize=150%2C150\"" /><strong></strong>",12.465556,41.862683
"Roma โ Municipio X &dash; Banca del Tempo Lo Scariolante","<img src=\""https://i0.wp.com/www.associazionenazionalebdt.it/wp-content/uploads/2015/12/Logo-Lo-Scariolante.jpg?resize=150%2C150\"" /><strong></strong>",12.302677,41.760042
"Roma โ Municipio IX &dash; Banca del Tempo Donne Insieme","<img src=\""https://i0.wp.com/www.associazionenazionalebdt.it/wp-content/uploads/2015/12/Image_coming_soon.jpg?resize=150%2C150\"" /><strong></strong>",12.478336,41.818213
"Roma โ Municipio  VIII &dash; Banca del Tempo Pian due Torri","<img src=\""https://i0.wp.com/www.associazionenazionalebdt.it/wp-content/uploads/2015/12/Image_coming_soon.jpg?resize=150%2C150\"" /><strong></strong>",12.487615,41.846724
"Roma โ Municipio  V โ Banca del Tempo Etร  Libera","<img src=\""https://i2.wp.com/www.associazionenazionalebdt.it/wp-content/uploads/2015/12/Logo-Etร -Libera.jpg?resize=150%2C150\"" /><strong></strong>",12.577499,41.890594
"Roma โ Municipio  V &dash; Banca del Tempo  Mamme e non solo","<img src=\""https://i0.wp.com/www.associazionenazionalebdt.it/wp-content/uploads/2015/12/Image_coming_soon.jpg?resize=150%2C150\"" /><strong></strong>",12.53469,41.88957
"Roma โ Municipio  IV &dash; Banca del Tempo Etร  Libera","<img src=\""https://i2.wp.com/www.associazionenazionalebdt.it/wp-content/uploads/2015/12/Logo-Etร -Libera.jpg?resize=150%2C150\"" /><strong></strong>",12.545924,41.914072
"Roma โ Municipio  III &dash; Banca del Tempo Il Ponte per la solidarietร ","<img src=\""https://i0.wp.com/www.associazionenazionalebdt.it/wp-content/uploads/2015/12/Image_coming_soon.jpg?resize=150%2C150\"" /><strong></strong>",12.521396,41.957708
"Roma โ Municipio  II &dash; Banca del Tempo SOS Razzismo","<img src=\""https://i0.wp.com/www.associazionenazionalebdt.it/wp-content/uploads/2015/12/Image_coming_soon.jpg?resize=150%2C150\"" /><strong></strong>",12.51935,41.909408
"Roma &dash; Municipio I &dash; Banca del Tempo Articolonove","<img src=\""https://i0.wp.com/www.associazionenazionalebdt.it/wp-content/uploads/2015/12/Image_coming_soon.jpg?resize=150%2C150\"" /></strong>",12.476601,41.877578
".Coordinamento Banche del Tempo di Roma","<img src=\""https://i0.wp.com/www.associazionenazionalebdt.it/wp-content/uploads/2015/12/Logo-Coordinamento-Roma.jpg?resize=150%2C150\"" />Via Giovanni Comisso 23, 00144 Roma",12.478336,41.818213
"Buja &dash; Banca del Tempo Ore d&#8217;Oro","<img src=\""https://i1.wp.com/www.associazionenazionalebdt.it/wp-content/uploads/2015/11/Logo-Ore-dOro-Buja.jpg?resize=150%2C150\"" /><strong></strong>",13.125494,46.207534
"Fiume Veneto &dash; Banca del Tempo La Meridiana","<img src=\""https://i2.wp.com/www.associazionenazionalebdt.it/wp-content/uploads/2015/11/Logo-La-Meridiana-Friuli.jpg?resize=150%2C150\"" />",12.700259,45.912299
"Sistiana &dash; Banca del Tempo Pollicino","<img class=""aligncenter wp-image-8431"" src=\""https://i0.wp.com/www.associazionenazionalebdt.it/wp-content/uploads/2015/11/Logo-Pollicino.jpg?resize=450%2C150\"" /><strong></strong>",13.64075,45.765554
"Anzola dell&#8217;Emilia &dash; Banca del Tempo Anzola dell&#8217;Emilia","<img src=\""https://i0.wp.com/www.associazionenazionalebdt.it/wp-content/uploads/2015/12/Image_coming_soon.jpg?resize=150%2C150\"" />",11.19218,44.54738
"Coriano &dash; Banca del Tempo Coriano","<img src=\""https://i0.wp.com/www.associazionenazionalebdt.it/wp-content/uploads/2015/12/Image_coming_soon.jpg?resize=150%2C150\"" />servizisociali@comune.coriano.rn.it",12.603362,43.963891
"Carpi &dash; Banca del Tempo Carpi","<img src=\""https://i0.wp.com/www.associazionenazionalebdt.it/wp-content/uploads/2015/11/Logo-Carpi.jpg?resize=150%2C150\"" />Via De Amicis 59, 41012 Carpi",10.885768,44.787027
"Udine &dash; Banca del Tempo Progetto Tempo","<img src=\""https://i0.wp.com/www.associazionenazionalebdt.it/wp-content/uploads/2015/11/Logo-Progetto-Tempo-Udine.jpg?resize=150%2C150\"" />Palazzo sede della 4ยฐ Circoscrizione, allโultima entrata prima della piscina al primo piano, salendo dalle scale a destra",13.249126,46.054918
"Emilia Romagna &dash; Banca del Tempo Forlรฌ","<p style=""text-align: left;""><strong>Telefono: ย </strong>+39 331 12 64 584<strong><br /> </strong><p style=""text-align: left;""><strong>E-mail: </strong>bancadeltempoforli@gmail.com<p style=""text-align: left;""><strong>Indirizzo:</strong> Viale Bolognesi 23 (ingresso Via Serra 2) 47121 Forlรฌ",12.047534,44.21737
"Imola &dash; Banca del Tempo e Scambio","<img src=\""https://i0.wp.com/www.associazionenazionalebdt.it/wp-content/uploads/2015/11/Logo-Imola.jpg?resize=150%2C150\"" />Piazza Antonio Gramsci 21, c/o Casa del Volontariato, 40026 Imola",11.712936,44.353215
"Bologna &dash; Banca del Tempo Momo","&nbsp;<p><strong>Referente:ย </strong><p>Salvatore Panu<p><strong>Telefono: ย </strong><p>+39 0519 91 46 02<p><strong>E-mail:</strong> <p>momobdt@libero.it<p><strong>Sito internet:</strong> <p>www.bancadeltempo.biz<p><strong>Indirizzo:</strong> <p>Via L. Serra 2/g, 40100 Bologna&nbsp;",11.34571,44.508472
"Modena &dash; Banca del Tempo Modena","<img src=\""https://i1.wp.com/www.associazionenazionalebdt.it/wp-content/uploads/2015/11/Logo-Modena.jpg?resize=150%2C150\"" />dalle ore 09:30 alle ore 11:30",10.940665,44.645421
"Quattro Castella &dash; Banca del Tempo di Quattro Castella","<img src=\""https://i1.wp.com/www.associazionenazionalebdt.it/wp-content/uploads/2015/11/Logo-Quattro-Castella.jpg?resize=150%2C150\"" />Via F.lli Cervi 4, c/o casa del Volontariato (ex scuole elementari), 42020 Montecavolo di Quattro Castella",10.534515,44.632451
"Emilia Romagna &dash; Banca del Tempo For-Te","<p style=""text-align: left;""><strong>Referente:ย </strong>Simone Nizzi<p style=""text-align: left;""><strong>Telefono: ย </strong>+39 328 738 93 76<strong><br /> </strong><p style=""text-align: left;""><strong>E-mail: </strong>bdtforte@gmail.com<p style=""text-align: left;""><strong>Indirizzo:</strong> Via Edison 36, 41043 Formigine",10.825674,44.581854
"Emilia Romagna &dash; Banca del Tempo La Clessidra","<p style=""text-align: left;""><strong>Referente:ย </strong>Teresa Malaguti<p style=""text-align: left;""><strong>Telefono: ย </strong>+39 0535 913 47<strong><br /> </strong><p style=""text-align: left;""><strong>E-mail: </strong>laclessidrafinale@libero.it<p style=""text-align: left;""><strong>Indirizzo:</strong> Via Cappuccini 20/A, 41034 Finale Emilia",11.290961,44.829996
"Bibbiano &dash; Banca del Tempo di Bibbiano","<img src=\""https://i0.wp.com/www.associazionenazionalebdt.it/wp-content/uploads/2015/12/Image_coming_soon.jpg?resize=150%2C150\"" /><strong><br /> </strong></div>",10.455809,44.650179
"Santarcangelo di Romagna &dash; Banca del Tempo Santarcangelo di Romagna","&nbsp;<p><strong>Referente:ย </strong><p>Vittorio Silenzi<p><strong>Telefono: ย </strong><p>+39 0541 62 43 05<p><strong>E-mail:</strong> <p>segreteria@bdt-san.org<p><strong>Indirizzo:ย ย </strong><p>Via G. da Serravalle 8/b, 47822 Santarcangelo di Romagna&nbsp;",12.448249,44.062143
"Rimini &dash; Banca del Tempo Marecchia","<img src=\""https://i0.wp.com/www.associazionenazionalebdt.it/wp-content/uploads/2015/12/Image_coming_soon.jpg?resize=150%2C150\"" />Via Bruno Toni 12/14, c/o la Casa dell&#8217;intercultura, 47922 Rimini",12.554352,44.060193
"Napoli &dash; Banca del Tempo &quote;Tutti per uno, ognuno per gli altri&quote;","<img src=\""https://i0.wp.com/www.associazionenazionalebdt.it/wp-content/uploads/2015/12/Image_coming_soon.jpg?resize=150%2C150\"" /></strong>",14.326827,40.858121
"Catanzaro &dash; Banca del Tempo Over 65","<img class=""wp-image-7565 size-thumbnail alignleft"" src=\""https://i0.wp.com/www.associazionenazionalebdt.it/wp-content/uploads/2015/12/Image_coming_soon.jpg?resize=150%2C150\"" /></strong>",16.592206,38.902451
"Matera &dash; Banca del Tempo AIDE &quote;E&#8217; Tempo di Tempo&quote;","<img src=\""https://i0.wp.com/www.associazionenazionalebdt.it/wp-content/uploads/2015/12/Image_coming_soon.jpg?resize=150%2C150\"" /></strong>",16.593246,40.676851
"LโAquila &dash; Associazione VALE","<img class=""size-thumbnail wp-image-7565 alignleft"" src=\""https://i0.wp.com/www.associazionenazionalebdt.it/wp-content/uploads/2015/12/Image_coming_soon.jpg?resize=150%2C150\"" /><strong></strong>",13.350809,42.357119
