"url", "latitude", "longitude", "WKT", "title", "description", "logo", "active_members", "year_transactions", "ads"
"a-bacasableannick.communityforge.net","47.427761","0.666850","","       Site Annick","            Bienvenue à vous!","http://a-bacasableannick.communityforge.net/system/files/fish-158336_640.png","4","0","1"
"a-bacasable-philippe.communityforge.net","50.629250","3.057256","","Oups! si vous arrivez là et que c'est pas votre site.","suite au travaux pour passer tous les sites communityforge en https..","","10","1","13"
"abrayliens.communityforge.net","47.9135808","1.9535065","","Abrayliens  ","","http://abrayliens.communityforge.net/system/files/st jean de braye.jpg","47","75","42"
"accordobiou.communityforge.net","44.906521","5.784528","","Accord'Obiou","N'échangez plus de l'argent, échangez du temps !","http://accordobiou.communityforge.net/system/files/Echange.png","17","11","8"
"a-crocosel.communityforge.net","44.055564","5.048722","","a-crocosel.communityforge.net","Mettez ici votre slogan","","3","0","0"
"agasel.communityforge.net","43.309547","3.472531","","AgaSEL","Le SEL Agathois","http://agasel.communityforge.net/system/files/logo.png","3","0","0"
"agenda21marcilly69.communityforge.net","45.872524","4.727579","","Entraide Marcilloise","Plateforme d'échanges, de trocs et de dons de Marcilly d'Azergues","http://agenda21marcilly69.communityforge.net/system/files/marcilly blason.jpg","12","0","3"
"alensel.fr","48.4330732","0.0926971","","Alen'Sel ","Plateforme d’échange de coups de mains, de biens et de savoir à Alençon et sa région.","http://alensel.fr/system/files/logolescourtscircuitsBAT_1.png","60","34","31"
"alternatisel.communityforge.net","48.8105376","2.0464611","","AlternatiSel","Le lien est plus fort que le bien","http://alternatisel.communityforge.net/system/files/logo alternatisel v5_0.png","9","0","7"
"annecy-sel74.communityforge.net","45.8987871","6.111191299999973","","SEL Annecy","Système d'Échange Local - Échanger pour changer","http://annecy-sel74.communityforge.net/system/files/logo-sel-300x138.jpg","57","643","23"
"arbresellarochelle.communityforge.net","46.160329","-1.151139","","Arbre Sel La Rochelle","Ton temps vaut le mien !","http://arbresellarochelle.communityforge.net/system/files/logo SEL.png","70","19","66"
"arbres-sn.communityforge.net","48.989700","-0.337890","","SEL arbres-sn","Venez cueillir et échanger vos feuilles de SEL!","http://arbres-sn.communityforge.net/system/files/Logo-SEL.jpg","60","9","45"
"arcenselcampbon.communityforge.net","47.412291","-1.9703293","","Arc-en-SEL de Campbon","","http://arcenselcampbon.communityforge.net/system/files/logo SEL.png","20","0","37"
"arcensel.communityforge.net","48.856614","2.352222","","arcensel.communityforge.net","Mettez ici votre slogan","","10","4","7"
"ahora.communityforge.net","-40.3007295","175.7240197","","aroha.communityforge.net","Ki te mea ka taka te kākano ki te wāhi e tika ana ka tinaku, ā, ka pihi ake he tipu hou","","2","0","0"
"a-seldicietdailleurs.communityforge.net","44.397248","0.804935","","SEL d'Ici et d'Ailleurs","Pour que ceux d'ici rencontrent ceux d'ailleurs....","http://a-seldicietdailleurs.communityforge.net/system/files/cf_n.jpg","6","0","1"
"a-selensemble.communityforge.net","43.9463612","4.8106384","","Test sur SEL Ensemble ","Le système d'échange local d'Avignon et environs","http://a-selensemble.communityforge.net/system/files/sel-ensemble_0.png","71","118","13"
"selidaire.org","47.401366","0.663360","","SEL'Idaire :   <!--/*-->   Portail dédié aux SEL / A tout membre individuel de SEL","Association pour l'information et la promotion des SEL francophones","http://selidaire.org/system/files/Sel'idaire-réduit+++.jpg","597","19","11"
"auberge.communityforge.net","48.800542","1.501719","","L'Auberge de la Solidarité","Ensemble pour la Solidarité","http://auberge.communityforge.net/system/files/portrait_1753_x250_y162.jpg","3330","1","226"
"bailasel.communityforge.net","44.575370","4.453330","","bailasel.communityforge.net","Le SEL de la Vallée de l'Auzon","http://bailasel.communityforge.net/system/files/logo Baila.png","3","0","0"
"baugeois-selidaires.communityforge.net","47.624440","-0.069790","","baugeois-selidaires.communityforge.net","Mettez ici votre slogan","","1","0","0"
"beaugen.communityforge.net","47.7780978","1.6342163","","Le grenier à SEL","Pour changer, échangeons!","http://beaugen.communityforge.net/sites/beaugensel.fr/files/logo_beaugency.jpg","35","52","11"
"besansel.fr","47.237829","6.0240539","","besansel.fr","Pour changer, échangeons !","","47","0","85"
"bigoudsel.communityforge.net","47.866915","-4.222298","","         Bigoud'sel","Le SEL qui décoiffe !","http://bigoudsel.communityforge.net/system/files/logo sel_0.jpg","34","18","98"
"boutsdephisel.communityforge.net","48.463890","-0.831680","","boutsdephisel.communityforge.net","Créons des liens","http://boutsdephisel.communityforge.net/system/files/LOGO_Phisel2_0.png","3","1","20"
"calif-sem.communityforge.net","50.614002","5.549618","","CALIF SEM","Service d'Echange entre Membres","http://calif-sem.communityforge.net/system/files/banniere-sem.jpg","33","2","30"
"carrefourdusel.communityforge.net","44.028","5.975","","carrefourdusel.communityforge.net","Le lien vaut mieux que le bien","","74","0","25"
"carrousel23.communityforge.net","46.393300","1.945180","","carrousel23.communityforge.net","Mettez ici votre slogan","","2","0","0"
"carrousel.communityforge.net","43.26915","2.401770","","Le Carrou'SEL, un SEL en Cabardès !","Chéri passe-moi le sel !","http://carrousel.communityforge.net/system/files/logo CarrouSEL.jpg","6","0","6"
"caux.communityforge.net","49.755601","0.380774","","Sel De Caux","Pour changer, échangeons","http://caux.communityforge.net/sites/caux.communityforge.net/files/LOGO-SEL-PUZZLE-04A.png","11","3","6"
"chamhouse.communityforge.net","44.274270","5.502560","","chamHouse","Bienveillance et fraternité","http://chamhouse.communityforge.net/system/files/bandeau_1.jpg","5","0","7"
"chatisel.communityforge.net","48.799858","2.285740","","CHATISEL","Solidarité, Convivialité, Entraide sans avoir recours à l'argent","http://chatisel.communityforge.net/system/files/logo_Sel_Chatillon.jpg","4","0","0"
"cirosel.be","50.2937261","5.1038361","","Ci-Ro-SEL","Le SEL de Ciney et Rochefort ","http://cirosel.be/sites/cirosel.be/files/sky_seldulac_logo.jpg","65","56","127"
"clesdesel.be","50.5651396","4.6894455","","Clés de SEL ","Le Système d'Echange Local de Gembloux et ses Villages","http://clesdesel.be/sites/clesdesel.be/files/sky_seldulac_logo.jpg","126","196","358"
"coin-jeu.communityforge.net","43.124228","5.928","","Coin-JEU Toulon","« Une alternative simple et conviviale à l'argent »","http://coin-jeu.communityforge.net/sites/coin-jeu.communityforge.net/files/sky_seldulac_logo.png","17","0","18"
"coordination-paca.communityforge.net","43.298189","5.381694","","Coordination PACA","Quand les SEL de la région PACA s'offrent un site....","http://coordination-paca.communityforge.net/system/files/Logo-CR-PACA.jpg","34","0","1"
"cprin.communityforge.net","48.856614","2.352222","","Bienvenue sur le site du Cprin","Collectif Pour les Rencontres InterSel Nationales","","21","0","32"
"crocosel.communityforge.net","44.055564","5.048722","","crocosel.communityforge.net","Mettez ici votre slogan","","3","0","0"
"crosel.communityforge.net","45.378233","5.647144","","SEL de la Haute-Morge","Moins de biens, plus de liens","http://crosel.communityforge.net/system/files/SEL-HauteMorge-logo-rvb_couleur.jpg","32","15","38"
"defisel.be","50.375662","4.867400","","DEFISel","Pour changer..., Echangeons !","http://defisel.be/sites/defisel.be/files/sky_seldulac_logo.jpg","83","167","66"
"demain-et-partage.communityforge.net","45.203671","4.032940","","Demain et partage","Parce qu'on est tous concernés","http://demain-et-partage.communityforge.net/system/files/Solidarité-3-600x268.jpg","17","0","21"
"dijon.communityforge.net","47.315108206886485","5.031671762335463","","SELlier du Dijonnais","Le lien est plus important que le bien","http://dijon.communityforge.net/sites/dijon.communityforge.net/files/sky_seldulac_logo.gif","45","0","62"
"diktyoantallagonxanion.net","35.5153212","24.0188599","","Δίκτυο Ανταλλαγών Χανίων","","http://diktyoantallagonxanion.net/system/files/final_logo.jpg","36","250","20"
"dina.communityforge.net","50.2608149","4.9129486","","DinaSEL, le SEL de Dinant","Mettez du SEL dans votre vie !","http://dina.communityforge.net/sites/dina.communityforge.net/files/Logo.png","38","11","47"
"dionyssel.org","48.936181","2.3574429999999893",""," Dionys'SEL","Plus de liens, moins de biens !","http://dionyssel.org/system/files/logo dionys'SEL mm.png","32","157","29"
"douce.communityforge.net","48.629828","2.441782","","SYSTEME D'ECHANGE LOCAL D'EVRY ","Pour changer échangeons","http://douce.communityforge.net/system/files/patates.jpg","17","80","10"
"dur.communityforge.net","43.959933","5.57","","Sel en Durance O&D","Favoriser le lien plutôt que le bien","http://dur.communityforge.net/sites/univers-sel.be/files/sky_seldulac_logo.png","43","67","19"
"echange-archives.communityforge.net","45.940730","4.137080","","echange-archives.communityforge.net","Mettez ici votre slogan","","1","0","0"
"echoduvelay.fr","45.072401","4.047414","","echoduvelay.fr","SEL du bassin du Puy en Velay et en Haute-Loire","http://echoduvelay.fr/system/files/logo-selEdV.jpg","20","56","82"
"echoval.communityforge.net","48.341247","7.302246","","Echo'SEL : le SEL de la vallée de Villé","Vivre tous simplement pour que tous puissent simplement vivre (Gandhi)","http://echoval.communityforge.net/system/files/Logo-Echoval_500.png","2","0","0"
"en-sel.communityforge.net","48.944990","2.684170","","En Sel et Marne","Plateforme d'ėchanges et de partages du 77","http://en-sel.communityforge.net/system/files/logo1.png","50","37","23"
"ensemble-19.communityforge.net","46.204391","6.143158","","Ensemble","Pour l'avenir de nos enfants...","http://ensemble-19.communityforge.net/system/files/ensemble_2.jpg","2","0","1"
"entreida.communityforge.net","48.856614","2.352222","","Entreida","Invitation à partager sans échange monétaire","http://entreida.communityforge.net/system/files/Logo-Bigre!-Bigre!_0.png","30","0","1"
"epinaysursel.communityforge.net","48.952518","2.314504","","epinaysursel.communityforge.net","Un lien solidaire au quotidien","","3","4","0"
"episel.communityforge.net","48.1880635","6.4407349","","Episel d'Epinal","","http://episel.communityforge.net/system/files/Logo EpiSEL Trans.png","70","34","36"
"espritdsel.communityforge.net","45.45338","5.50875","","Esprit D'Sel","Système d'Echange Local à Doissin","http://espritdsel.communityforge.net/system/files/logo-EspritDsel.jpg","32","4","19"
"essensel.communityforge.net","48.6891473","-1.3664246","","Essen'Sel","","http://essensel.communityforge.net/system/files/essensel_0.gif","100","51","70"
"estunsel.fr","48.4100609","-1.7495728","","EstunSEL ","Pour changer, échangeons !","http://estunsel.fr/sites/estunsel.fr/files/sky_seldulac_logo.jpg","95","2","270"
"etinsel78.communityforge.net","48.999663","1.880659","","etinsel78.communityforge.net","Un SEL aux portes du Vexin","","19","13","11"
"etinselsgl.communityforge.net","45.697071","4.791839","","etinselsgl.communityforge.net"," Bienvenue sur le Sel de Saint Genis-Laval - Du lien plus que du bien","http://etinselsgl.communityforge.net/system/files/designproposal (6).jpg","59","85","107"
"firenze.communityforge.net","41.902782","12.496365","","firenze.communityforge.net","Qui andrà il tuo slogan","","2","0","0"
"fi-sel.communityforge.net","44.685506","-0.365290","","FI-SEL","Le SEL du vallon de l'Artolie","http://fi-sel.communityforge.net/system/files/Logo FiSel.jpg","33","28","17"
"fleurdeblenoir.communityforge.net","47.9972739","-4.0965271","","Sel Fleur de Blé Noir","Système d'Echange Local de la région de Quimper","http://fleurdeblenoir.communityforge.net/system/files/LOGO_1.png","42","0","74"
"fleurdesel.communityforge.net","50.434050","4.759220","","Fleur de SEL","Echanger c'est changer ","http://fleurdesel.communityforge.net/system/files/LogoFleurdeSel.png","22","44","30"
"fleurdeselstnazaire.communityforge.net","47.274330","-2.213740","","Fleur de SEL Saint Nazaire","Association d'échange de savoirs, de biens et de services dans un esprit de convivialité sur la région de Saint Nazaire","http://fleurdeselstnazaire.communityforge.net/system/files/fleur-de-sel-saint-nazaire-logo.jpg","4","0","1"
"sel-fm.ch","47.2576938","6.996552100000031","","SEL Franches-Montagnes","... allez aux pives...","http://sel-fm.ch/system/files/sel2.jpg","96","126","284"
"fontaine.communityforge.net","45.613538","5.150093","","Sel de Villefontaine et ses voisins","Pour changer "échangeons"","http://fontaine.communityforge.net/sites/fontaine.communityforge.net/files/sky_seldulac_logo.jpeg","120","673","159"
"forez.communityforge.net","45.6063521","4.0649414","","Sel du Forez","Bienvenue au Sel du Forez","http://forez.communityforge.net/system/files/Logo JPEG_3.jpg","28","0","56"
"gabare.communityforge.net","44.8023012","-0.6262207","","SEL Gabare","Le SEL de Pessac et de la Métropole Bordelaise depuis 1996","http://gabare.communityforge.net/sites/gabare.communityforge.net/files/sky_seldulac_logo.jpg","49","0","34"
"gaume.communityforge.net","49.6556272","5.500031","","SELavie Gaume","Système d’Echange Local en Gaume","http://gaume.communityforge.net/sites/selaviegaume.be/files/sky_seldulac_logo.jpg","21","58","23"
"gedisel.communityforge.net","50.000342","4.917869","","gediSEL","Et la Vie étincelle","http://gedisel.communityforge.net/system/files/logo gedisel.png","17","14","2"
"genevois.communityforge.net","46.1883875","6.2258148","","SEL d'Annemasse-Genevois","Pour changer, échangeons !","http://genevois.communityforge.net/system/files/Sel d'Annemasse-Genevois Logo 13_0.jpg","67","286","54"
"gmsel.be","50.6303","5.5838013","","GMSel.be","Des échanges à l'appel","http://gmsel.be/system/files/GMselwebpetit_0.jpg","38","42","7"
"grain2sel.net","48.789676","1.5682983","","grain2SEL pays houdanais et drouais / SEL du drouais","Système d'échange local -  Grain2SEL (Houdan, Dreux, Anet) - SEL du drouais (Dreux)","http://grain2sel.net/system/files/logos.png","59","43","52"
"hb-sel.be","50.1104511","4.9596405","","Hou L'Beau Sel","Service d'échange local Houyet - Beauraing","http://hb-sel.be/sites/hb-sel.be/files/sky_seldulac_logo.png","69","48","18"
"jallieu.communityforge.net","45.597108","5.27212","","SEL de Bourgoin Jallieu","Mettez un peu de SEL dans votre vie ...","http://jallieu.communityforge.net/sites/seldebourgoinjallieu.fr/files/sky_seldulac_logo.jpg","149","740","207"
"jeu.montpellier.communityforge.net","43.6062507","3.8850403","","Jardin d'échange Universel Montpellier","Réseau d'échange de biens et de service autogéré et sans frontières","http://jeu.montpellier.communityforge.net/system/files/image jeu reduite.png","34","0","20"
"justesel-mettet.be","50.320148","4.657950","","Le JusteSEL de Mettet","On a tous quelque chose à partager","http://justesel-mettet.be/system/files/LogoJusteSEL_Mettet_petit.jpg","51","13","49"
"laclefdesel.fr","45.9368257","-0.9599304","","La Clef de SEL - Rochefort","Pour changer, échangeons... sans argent !","http://laclefdesel.fr/sites/laclefdesel.fr/files/clef2sel.jpg","44","1","24"
"laficelle.communityforge.net","48.4179227","2.7261543","","Les bouts d'ficelle","Le SEL d'Avon, de Fontainebleau et des alentours","http://laficelle.communityforge.net/system/files/Lesboutsdficelle_réduit.jpg","50","71","150"
"lambersel.communityforge.net","50.647881","3.022680","","LamberSEL","Pour changer, échangeons !","","9","0","12"
"lebeausel.fr","44","5","","Le BeauSEL","SEL de Carpentras","http://lebeausel.fr/sites/selesneux.be/files/sky_seldulac_logo.png","26","30","12"
"lechampdespoissybles.communityforge.net","48.929584","2.046982","","Le Champ des Poissybles","","http://lechampdespoissybles.communityforge.net/system/files/CdP-logo-quadri.png","25","0","0"
"legaletdubuech.communityforge.net","44.315272","5.821642","","Le Galet du Buech","Le lien plutôt que le bien !","http://legaletdubuech.communityforge.net/system/files/galet1.jpg","43","42","15"
"lesablier.communityforge.net","46.340370","4.616440","","Le SabLiEr","Le lien est plus important que le bien. "temps" à partager","http://lesablier.communityforge.net/system/files/logoSablier5.jpg","70","6","36"
"leseldecrest.communityforge.net","44.7252716","5.0166321","","leseldecrest.communityforge.net","le SEL de Crest et de ses environs.","http://leseldecrest.communityforge.net/system/files/le-sel-de-crest.png","191","490","147"
"le-sel-de-mer.communityforge.net","47.701389","1.511620","","le-sel-de-mer.communityforge.net","Ensemble, privilégions l’humain plutôt que le bien","http://le-sel-de-mer.communityforge.net/system/files/logoSimplifie.jpg","11","0","7"
"leseldesjalles.communityforge.net","44.910450","-0.638460","","Le SEL des JALLES","DU LIEN PLUTOT QUE DES BIENS","","22","0","6"
"leselducoin.communityforge.net","47.1906457","-1.5696716","","leselducoin.communityforge.net","Le SEL du Coin n'est jamais loin ","http://leselducoin.communityforge.net/system/files/LOGO le Sel Du Coin définitif.jpg","17","0","12"
"lesfleursdepastel.communityforge.net","43.3536434","1.4773178","","SEL, Les Fleurs de Pastel / Auterive","Pour Changer Echangeons  ","http://lesfleursdepastel.communityforge.net/system/files/pastel.jpeg","33","141","86"
"lespartagheures.communityforge.net","48.5643396","-71.652832","","Les Partag'Heures","Le temps, c'est bien plus que de l'argent, surtout lorsqu'on le partage","http://lespartagheures.communityforge.net/system/files/g3022.png","10","1","17"
"lespritdesel.communityforge.net","50.591620","4.906490","","L'Esprit de SEL","Recevoir est tout simplement aussi généreux que donner","","2","0","0"
"lessensel.communityforge.net","50.292150","5.558580","","L'EssenSEL Erezée ","Plantons des shoux à la mode de l’EssenSEL !","http://lessensel.communityforge.net/system/files/SEL2 (1).png","10","0","15"
"lesutiles.communityforge.net","45.165133","5.767761","","Les Utiles","","http://lesutiles.communityforge.net/system/files/logolu5.png","13","4","8"
"levrezo.communityforge.net","49.317610","1.513850","","levrezo.communityforge.net","LE RESEAU D'ECHANGE ET D'ENTRAIDE DE LA VALLEE DE LA LEVRIERE","http://levrezo.communityforge.net/system/files/logo les mains 2 200x200_0.png","7","0","6"
"localicoco.communityforge.net","49.489393","-1.827912","","Localicoco","Vive l'échange!","http://localicoco.communityforge.net/system/files/56317662_340030616619019_4927569069067993088_n.jpg","40","18","87"
"lochsel.communityforge.net","47.826526","-3.251851","","Loch'Sel","Le SEL d'Inzinzac-Lochrist","http://lochsel.communityforge.net/system/files/Logo.jpg","21","0","28"
"loireetselblois.communityforge.net","47.5839366","1.3430786","","Loire&Sel de Blois","Mettez du sel dans votre vie : rejoignez-nous","http://loireetselblois.communityforge.net/system/files/sel_personnag.jpg","46","144","65"
"macasel.be","50.7168954","4.6142578","","Macasel, SEL de Wavre","S'entraider entre voisins","http://macasel.be/sites/macasel.be/files/sky_seldulac_logo.jpg","105","498","117"
"marsel.communityforge.net","43.2981887","5.381693600000062","","MarSel"," un SEL de Marseille ","http://marsel.communityforge.net/system/files/smart-collaboration.jpg","62","46","51"
"massyensel.communityforge.net","48.730309","2.272750","","MASSY en SEL","Venez récolter, échanger, partager des pâquerettes","http://massyensel.communityforge.net/system/files/nature-3296396_1280.jpg","3","0","3"
"memo.communityforge.net","45.764043","4.835659","","SEL/JEU : Les échanges sans argent","échanger en Points-Minutes des biens ou services : ça change nos relations","http://memo.communityforge.net/system/files/logo, échanges entre 5 bonhommes_0.jpg","39","61","44"
"meylansel.communityforge.net","45.209786","5.777628","","MeylanSel ","Echanges de services, de biens et de savoirs, gratuité, convivialité...","http://meylansel.communityforge.net/system/files/logomeylansel.png","16","3","7"
"mionsel.org","45.6610871","4.952774","","MionSel - Sel de Mions","PRIVIL&Eacute;GIER LE LIEN PLUT&Ocirc;T QUE LE BIEN ","http://mionsel.org/system/files/Mionsel.jpg","24","82","2"
"mljnm.communityforge.net","43.834591","4.360860","","Le SEL des collègues de la MLJNM","Le don est échange de vie et la vie, échange de don","http://mljnm.communityforge.net/system/files/La place de l'Horloge.JPG","5","4","6"
"monselhamois.be","50.3415166","5.1570511","","monselhamois.be","Passe-moi l'SEL","http://monselhamois.be/sites/monselhamois.be/files/sky_seldulac_logo.JPG","23","48","40"
"mortuasel.communityforge.net","47.056980","6.604106","","Mortuasel","Une aventure solidaire !","http://mortuasel.communityforge.net/system/files/Flocon 2.png","25","18","11"
"motueka.cosh.net.nz","-41.1240452","173.0009842","","motueka.cosh.net.nz","Community Share Motueka - Exchange with Hours or Talents","http://motueka.cosh.net.nz/system/files/2014-03-26_1826.png","10","2","15"
"my-fra.communityforge.net","50.320020","4.657850","","Pour clone | Ne pas supprimer Site de démo Francais","Mettez ici votre slogan","","2","0","2"
"nacreetsel17.fr","45.7332651","-1.0986328","","nacreetsel17.fr","Une heure de ta vie vaut une heure de la mienne !","http://nacreetsel17.fr/system/files/Logo FF.jpg","25","0","77"
"nacl.nandrin.be","50.507146","5.419846","","Service d'échange Local (SEL) de Nandrin & Modave","Ajoutez du SEL à la vie !","http://nacl.nandrin.be/system/files/sky_seldulac_logo[10233].jpg","37","21","66"
"nantes-en-sel.communityforge.net","47.2232989","-1.547699","","nantes-en-sel","Le lien avant le bien","http://nantes-en-sel.communityforge.net/system/files/LogoNes2.jpg","35","0","59"
"newsletters.communityforge.net","46.204391","6.143158","","Newsletters","L'espace dédié aux newsletters CommunityForge","","10","0","0"
"niversel.fr","46.9907918","3.1650925","","Niver-SEL","L'humain au coeur des échanges","http://niversel.fr/system/files/pers du Mq pge.jpg","11","8","1"
"ourthsel.be","50.2171175","5.4727793","","ourthsel.be","Le SEL, c'est choisir le lien au lieu des biens","http://ourthsel.be/sites/ourthsel.be/files/sky_seldulac_logo.jpg","49","118","234"
"ourtimebank.com","34.0640367","-118.2568359","","Our Time Bank","Building Community in Our Corner of Los Angeles","http://ourtimebank.com/system/files/Logo-All-People-OTB-Orange med web-.jpg","55","243","30"
"outre-foret.communityforge.net","49.0227298","7.9080963","","outre-foret.communityforge.net","POUR CHANGER, ECHANGEONS !","http://outre-foret.communityforge.net/system/files/dessin logo SEL 2.jpg","24","19","9"
"pelussel.communityforge.net","45.417860","4.681080","","Pelussel","","http://pelussel.communityforge.net/system/files/se-serrer-les-mains-11321.jpg","23","10","15"
"phisel.be","50.1958462","4.5430358","","phisel.be","Un monde sans SEL est sans saveur ! ","http://phisel.be/sites/phisel.be/files/sky_seldulac_logo.jpg","16","45","37"
"potdseldubelmont.communityforge.net","46.8662944","7.0152855","","Le Pot d'Sel du Belmont","Un peu de sel dans la vie !","http://potdseldubelmont.communityforge.net/system/files/SEL.jpg","31","17","14"
"potesensel.communityforge.net","49.8964037","2.303009","","POTES EN SEL","Système d'Echange Local Amiénois","http://potesensel.communityforge.net/system/files/fondha-bleu02.jpg","7","0","3"
"pyreneen.communityforge.net","43.0859404","1.8772888","","SEL Pyrénéen","Pour changer, Echangeons","http://pyreneen.communityforge.net/sites/pyreneen.communityforge.net/files/sky_seldulac_logo.gif","56","86","122"
"radiselvalmont.communityforge.net","49.7410113","0.5174732","","Radis'SEL de la région de Valmont 76","Profitons de nos savoir-faire !","http://radiselvalmont.communityforge.net/system/files/logo_r_0.jpg","39","280","43"
"ratintout.communityforge.net","50.6609965","3.0514526","","Ratintout.org","Ratintout - le SEL andrésien","http://ratintout.communityforge.net/system/files/ratintout_logo.png","20","4","11"
"reciprok.net","48.857487","2.3503876","","Gestion de votre compte ReciproK","Saisir ci-dessous à droite votre code et mot de passe ","http://reciprok.net/system/files/Reciprok.jpg","2","0","0"
"reciproksavoirsavignon.communityforge.net","43.949249","4.805901","","reciproksavoirsavignon.communityforge.net","Une autre manière d'apprendre","http://reciproksavoirsavignon.communityforge.net/system/files/pont stylisé_0.jpg","53","6","54"
"rencontre-annuelle-2020.communityforge.net","46.204391","6.143158","","Rencontres Annuelles 2020","Et c'est reparti pour un tour","http://rencontre-annuelle-2020.communityforge.net/system/files/Passerelle logo2.jpg","4","0","0"
"antonin.communityforge.net","45.1781648","5.1869202","","Réseau Antonin ","Coopérer, partager des biens ou des services, à Saint-Antoine l'Abbaye et alentours","http://antonin.communityforge.net/system/files/photo SEL web.jpg","50","1","37"
"risle.communityforge.net","49.355992","0.5142975","","Sel de Risle","Votre slogan ici","http://risle.communityforge.net/sites/risle.communityforge.net/files/sel3_1_0.jpg","47","150","34"
"sancysel63.communityforge.net","45.571030","2.897360","","sancysel63.communityforge.net","Mettez ici votre slogan","http://sancysel63.communityforge.net/system/files/flyerSelaPhotocopier.jpg","4","0","0"
"seine.communityforge.net","49.44","1.10","","SEL de Seine    ROUEN","Pour changer, échangeons ! Car le lien est plus important que le bien.","http://seine.communityforge.net/sites/seine.communityforge.net/files/colorfull_mains_tas_v1_2.png","122","494","233"
"sel2mers.communityforge.net","48.397804","-4.484288","","SEL2mers","BREST -29- Un réseau d'échange de services, de biens et de savoir-faire SANS ARGENT","http://sel2mers.communityforge.net/system/files/16472929_1478907942150071_6019757738452807669_n.jpg","54","406","72"
"sel3f.communityforge.net","49.549673","5.811929","","Sel3F - Sel'échange des 3 Frontières","Des Fi'Sel pour tisser du lien","http://sel3f.communityforge.net/system/files/Logo Sel3F.png","17","5","20"
"sel44290.communityforge.net","47.624540","-1.751607","","Sel de Conquereuil","Échanger localement, une idée en or sans argent","http://sel44290.communityforge.net/system/files/bannière-SEL- lettre.jpg","11","2","22"
"sel87.communityforge.net","45.776387","1.392131","","sel87-universel.fr","Système d'Echange Local","http://sel87.communityforge.net/system/files/LogoSel.png","22","16","14"
"sel99.fr","48.0229983","3.874054","","SEL99","C'est    CHOUETTE    le      S.E.L....!","http://sel99.fr/system/files/logo copie.png","22","120","38"
"seladons47.communityforge.net","44.401167","0.699861","","seladons","La rencontre de l'Autre vaut tout l'or du monde","http://seladons47.communityforge.net/system/files/1LOGOSELADONS.jpg","65","0","42"
"seladonsvlg.communityforge.net","48.9378934","2.3254967","","SELadons Villeneuve la Garenne","Echanges de services, de biens et de savoirs","http://seladonsvlg.communityforge.net/system/files/logo.png","12","12","55"
"selagora.communityforge.net","43.493401","-1.474570","","SEL Agora","Pour changer la vie, échangeons","http://selagora.communityforge.net/system/files/selagora-.jpg","15","0","5"
"selalternative.communityforge.net","48.800542","1.501719","","Sel'Alternative","L'espace des alternatives et de l'entraide","http://selalternative.communityforge.net/system/files/Logo-Alternative.jpg","53","3","11"
"sel-amay.communityforge.net","50.5472537","5.312233","","SEL d'Amay","La convivialité à portée de main","http://sel-amay.communityforge.net/system/files/Amayentransition.jpg","59","194","109"
"selangevin.fr","47.47192496532473","-0.5311384722426737","","Le SEL Angevin","Pour changer échangeons","http://selangevin.fr/system/files/SelAngevin.png","63","243","140"
"sel-aprina.communityforge.net","48.607491","2.890500","","sel-aprina.communityforge.net","Rien que des richesses naturelles","http://sel-aprina.communityforge.net/system/files/TkrBL8.png","9","15","13"
"selarden.communityforge.net","49.7383488","4.7505569","","selarden.communityforge.net","Privilégier le lien plutôt que le bien","http://selarden.communityforge.net/system/files/logo.png","87","89","6"
"selardenne.be","50.406843","5.808612","","Sel'Ardenne","Pour changer..., Echangeons !","http://selardenne.be/system/files/Sel-ardennejpg.jpg","27","3","2"
"selargoat.communityforge.net","48.563943","-3.159705","","Sel de l' Argoat","Le SEL ne s'use que si l'on ne s'en sert pas ...... ","","29","0","12"
"selasnieres.communityforge.net","48.914155","2.285369","","selasnieres.fr","Mettez ici votre slogan","http://selasnieres.communityforge.net/system/files/s.jpg","27","2","19"
"selastarac.communityforge.net","43.515202","0.404330","","selastarac.communityforge.net",""Soyez le changement que vous voulez voir dans le monde"","","2","0","0"
"selastuce.communityforge.net","48.030485","5.972523","","                                      SelAstuce","Révelez l'Astuce qui sommeille en vous, votre Talent est votre Richesse !","http://selastuce.communityforge.net/system/files/logo astuce-1.jpg","7","0","6"
"selaulnay.communityforge.net","48.9414453","2.4999046","","Échangeons Mieux Ensemble","Le SEL d'Aulnay-sous-Bois","http://selaulnay.communityforge.net/system/files/logo2_petit.png","35","78","73"
"selauray56.communityforge.net","47.666449","-2.983372","","selauray56.communityforge.net","le lien avant le bien","http://selauray56.communityforge.net/system/files/logo selaurayjpg_0.jpg","61","1","26"
"selavenir49.communityforge.net","47.480368","-0.517452","","selavenir49.communityforge.net","Pour changer, échangeons","http://selavenir49.communityforge.net/system/files/logo selavenir 600 dpi 001.jpg","20","108","63"
"selavenir.communityforge.net","48.563658","2.6010132",""," SEL'Avenir","Système d'Echange Local de Cesson, Sénart et les villes avoisinantes 77","http://selavenir.communityforge.net/system/files/logo sel'avenir.png","12","5","17"
"selavie37.communityforge.net","47.547220","0.321350","","SELAVIE!","C'est la vie! Système d'Echange Local de la Touraine Nord Ouest","http://selavie37.communityforge.net/system/files/45106133_557930287983854_4849905507621666816_n.jpg","13","0","8"
"selavie76.communityforge.net","49.918560","1.071480","","selavie76.communityforge.net","Sel' à Vie pays dieppois","http://selavie76.communityforge.net/system/files/logo_bannieresel.png","6","0","0"
"selavie86530.communityforge.net","46.763960","0.481840","","selavie86530.communityforge.net","TOUS EN SEL","http://selavie86530.communityforge.net/system/files/logo selavie.jpeg","18","19","17"
"selavie3f.communityforge.net","47.585995","7.563934","","SEL à Vie","Le partage au cœur des 3 Frontières - www.selavie.fr","http://selavie3f.communityforge.net/system/files/SEL-à-Vie-Logo-2.2_0.gif","28","4","16"
"selaviefresnes.communityforge.net","48.757205","2.326243","","SELavie Fresnes","","http://selaviefresnes.communityforge.net/system/files/logo_selavie_0_0.jpg","26","8","17"
"selavie59.communityforge.net","50.767462","2.546833","","Selavie","Le lien est plus important que le bien. Hazebrouck Bailleul Cassel Steenvoorde et environs","http://selavie59.communityforge.net/system/files/chat.png","81","149","81"
"selavoie.communityforge.net","45.677500","6.391780","","Sel A Voie","Selidairement","","17","0","38"
"selbassois.communityforge.net","45.306270","4.110110","","selbassois.communityforge.net","Pour changer...échangeons dans un esprit de convivialité et de solidarité","http://selbassois.communityforge.net/system/files/SEL BASSOIS.png","33","120","73"
"selblanc.communityforge.net","47.468700","-0.558810","","Château d'SEL","Système d'Échange Local de l'Association de quartier de la Blancheraie","","6","0","0"
"selbordsdeloire.communityforge.net","45.534660","4.269780","","sel des bords de loire ","Echanges de biens, de services, et de savoirs...","http://selbordsdeloire.communityforge.net/system/files/Sans titre_0.png","70","0","21"
"sel-bressan.communityforge.net","46.207899","5.232508","","Sel Bressan ","Plus de liens, moins de biens","http://sel-bressan.communityforge.net/system/files/logo.jpg","200","11","219"
"selbromemissisquoi.communityforge.net","45.501690","-73.567253","","SEL Brome Missisquoi","Bienvenue à votre système d'échange local (SEL) de Brome-Missisquoi!","","17","14","12"
"selbuechdurance.communityforge.net","44.197060","5.943470","","selbuechdurance.communityforge.net","Après réflexion, le lien c'est vraiment mieux que le bien","","50","0","31"
"selcalade.communityforge.net","45.9893289","4.7419739","","SEL Calade","Echanger sans argent: biens, services et savoir-faire","http://selcalade.communityforge.net/system/files/Raisins dessin.jpg","79","488","193"
"selchaponost.fr","45.7108543","4.7455788","","SEL 'AVIE","","http://selchaponost.fr/system/files/avatar _1.png","71","391","53"
"selclairdelune.communityforge.net","43.5403359","-1.4591217","","selclairdelune.communityforge.net","Mettez du S.E.L dans votre vie ","http://selclairdelune.communityforge.net/system/files/like-the-wind_by_webby85.jpg","66","489","11"
"selclunisois.org","46.434135","4.659274","","Selclunisois","Le SEL ne s'use que si l'on ne s'en sert pas ......","http://selclunisois.org/sites/selclunisois.org/files/sky_seldulac_logo.JPG","129","119","101"
"selcoupdepouce.be","50.5980579","4.6039581","","SEL coup de pouce","Système d'Echange Local - Echanger, c'est changer !","http://selcoupdepouce.be/sites/selcoupdepouce.be/files/logo.jpg","201","1117","348"
"seldarcy.communityforge.net","47.603822","3.759212","","SELDARCY  ","Sytème d'Echange Local des vallées Cure et Yonne  :  Les p'tits coups de main qui créent du lien","http://seldarcy.communityforge.net/system/files/logo.jpg","69","212","95"
"seldebeaurepaire.fr","45.3289787","5.0386047","","seldebeaurepaire.fr","Certains, individuellement, iront plus vite, mais Ensemble nous irons plus loin...!","http://seldebeaurepaire.fr/system/files/ampoule.jpg","45","142","7"
"seldebergues.communityforge.net","50.9685355","2.4334288","","Le pâte à sel","Echanger... et changer !","","10","12","15"
"seldebourges.communityforge.net","47.081012","2.398782","","Système d'Echange Local de Bourges","Site de "Pas seul en Sel"","http://seldebourges.communityforge.net/system/files/Logo_Sel_Original.png","33","64","21"
"seldebriancon.communityforge.net","44.9008757","6.6441536","","SEL Briançonnais","Système d'Echange Local de Briançon - Agir Ensemble Ici et Maintenant","http://seldebriancon.communityforge.net/system/files/SELB_Logo_0.jpg","13","0","7"
"seldecarbonne.fr","43.2922008","1.2249756","","SEL de Carbonne","","http://seldecarbonne.fr/system/files/LogoSEL_complet_0.jpg","57","52","79"
"seldecergypontoise.fr","49.029829","2.083165","","SEL Cergy-Pontoise","","http://seldecergypontoise.fr/sites/seldecergypontoise.fr/files/logo_sel_de_cergy_couleur_0.jpg","197","1166","13"
"seldecharnay.communityforge.net","46.309859","4.800459","","Sel de Charnay","Le SEL, un grain à partager.","http://seldecharnay.communityforge.net/system/files/Logo_charnay_0.jpg","37","54","13"
"seldechateau-thierry.fr","49.0465323","3.4038734","","Le Château de SEL","Pour changer, échangeons!","http://seldechateau-thierry.fr/system/files/lgo Chateau de Sel BD2.jpg","92","155","110"
"sel.de.dol.communityforge.net","48.5557051","-1.7612457","","SEL de la Vallée du Guyoult","En SEL ensemble","http://sel.de.dol.communityforge.net/system/files/logo.png","39","0","13"
"seldefontaine.eu","45.1926835","5.6878281","","SEL de Fontaine en Isère","Pour changer, échangeons.","","37","32","67"
"seldegrenoble.communityforge.net","45.1888124","5.7245636","","SEL de Grenoble","L'échange solidaire sans argent pour faire prospérer les liens","http://seldegrenoble.communityforge.net/system/files/images_0.jpg","59","247","31"
"seldejuvignac.communityforge.net","43.611297","3.812357","","seldejuvignac.communityforge.net","Le lien plus important que le bien","http://seldejuvignac.communityforge.net/system/files/logo def.jpg","22","12","11"
"seldelaconfluence.communityforge.net","48.992570","2.092440","","seldelaconfluence.fr","","http://seldelaconfluence.communityforge.net/system/files/Bandeau_sdlc_4_0.jpg","33","0","2"
"seldelacotesaintandre.communityforge.net","45.393431","5.265568","","SEL de La Côte-Saint-André ","Pour changer, échangeons !","http://seldelacotesaintandre.communityforge.net/system/files/logo.png","19","18","25"
"seldelagondoire.org","48.855923","2.736783","","SEL de la Gondoire","Venez mettre votre grain de sel ... échangez!","http://seldelagondoire.org/system/files/Logo_SEL_web_new.png","52","0","31"
"seldelaterre11.communityforge.net","43.0533357","2.218895","","seldelaterre11.communityforge.net","Pour changer, échangeons !","http://seldelaterre11.communityforge.net/system/files/logo sel de la terre.png","5","0","6"
"seldelavaldaine.communityforge.net","44.627740","4.972800","","seldelavaldaine.communityforge.net","Mettez ici votre slogan","","2","0","0"
"sel-delemont.communityforge.net","47.3659202","7.3436737","","Sel Région Delémont","Donner, recevoir, se rencontrer, partager !","http://sel-delemont.communityforge.net/system/files/logo_sel_region_delemont_0.jpg","58","55","101"
"seldeloire.org","47.3983492","0.6811523","","Sel de  Loire...      à  Tours","Système d'Echange Local","http://seldeloire.org/system/files/bandeau_loire_0_0_0.jpg","59","306","141"
"seldemagalas.communityforge.net","43.470887","3.222528","","Le SEL de Magalas et des environs","Système d'Echange Local","http://seldemagalas.communityforge.net/system/files/groupe-du-flyer-267.jpg","26","25","55"
"seldemalaunay.communityforge.net","49.527120","1.042950","","                     SEL de Malaunay","                     Prêter, donner, échanger","http://seldemalaunay.communityforge.net/system/files/Logo calque.png","44","60","85"
"seldemars.org","43.296482","5.369780","","http://seldemars.communityforge.net/ ","Mettez ici votre slogan","http://seldemars.org/system/files/LogoSdM2.jpg","79","39","67"
"seldemure.communityforge.net","45.694533","5.022496","","seldemure.communityforge.net","Au SEL DE MURE, des relations sociales de proximité par l’entraide !","http://seldemure.communityforge.net/system/files/# logo définitif SDM.jpg","57","102","46"
"seldenacre.communityforge.net","49.3173455","-0.3534508","","seldenacre.communityforge.net","Sel Coeur de Nacre, réseau d'entraide à Luc sur mer","http://seldenacre.communityforge.net/system/files/logosel.jpg","33","21","31"
"seldenoiseau.org","48.7748018","2.5532913","","SEL Intercommunal de Noiseau","Un SEL ouvert à tous","http://seldenoiseau.org/sites/seldenoiseau.org/files/sky_seldulac_logo.jpg","1","0","0"
"seldepaname.org","48.8557928","2.3431778","","SEL de Paname","Le lien est plus important que le bien (devise des SEL de France)","http://seldepaname.org/system/files/logoSELdePaname_ombre2 b.jpg","47","30","73"
"seldereims.asso.st","49.258329","4.031696","","SEL.Reims","Pour changer... échangeons sans argent!","http://seldereims.asso.st/system/files/illustrationBase35p.jpg","136","502","144"
"selderodez.communityforge.net","44.349389","2.575986","","SEL de Rodez","Système d'Echange Local du ruthénois","http://selderodez.communityforge.net/system/files/banniere sel de rodez2.png","55","138","89"
"seldes3rivieres.communityforge.net","44.194713","5.943191","","seldes3rivieres.communityforge.net","Le lien vaut plus que le bien","http://seldes3rivieres.communityforge.net/system/files/LOGO.png","10","0","18"
"seldesbastides.communityforge.net","44.668628","0.397723","","seldesbastides.communityforge.net","Pour changer, échangeons !","http://seldesbastides.communityforge.net/system/files/LOGO SEL 3.jpg","22","31","27"
"seldesbiotherapeutes.communityforge.net","45.988162","-1.093442","","SEL des bio thérapeutes","Echanges solidaires de praticiens de la santé naturelle et du bien-être","","13","15","59"
"seldesecluses.communityforge.net","48.3998046","2.7958488","","SEL des Ecluses","La rencontre de l’autre vaut tout l’or du monde","http://seldesecluses.communityforge.net/system/files/LOGO_SEL.jpg","67","218","18"
"seldesem.communityforge.net","47.276451","-1.780590","","seldesem.communityforge.net","Le SEL de Saint-Étienne de Montluc","http://seldesem.communityforge.net/system/files/Logo SEl de SEM-01.jpg","52","136","56"
"seldesete-thau.communityforge.net","43.4190139","3.7051392","","seldesete-thau.com","Soyons sélidaires à Sète et dans le Bassin de Thau","http://seldesete-thau.communityforge.net/system/files/logo.jpg","50","1","11"
"seldesevre.org","48.8213325","2.2127151","","seldesevre.org",""Il faut remplacer l'exploit solitaire par une réussite solidaire" Albert Jacquard","http://seldesevre.org/system/files/CSCJaunaisBlordiere_quadri.jpg","22","19","32"
"seldesgrandslacs.communityforge.net","44.393568","-1.170642","","seldesgrandslacs.communityforge.net","Le lien est plus important que le bien.","http://seldesgrandslacs.communityforge.net/system/files/logo SDGL.jpg","22","13","11"
"sel-des-hauts.communityforge.net","47.945588","6.864497","","sel-des-hauts.net","Mettez ici votre slogan","","57","47","73"
"seldeslauzes.communityforge.net","45.8087004","5.40802","","SEL des Lauzes","Osez la Lauze","http://seldeslauzes.communityforge.net/system/files/Lauzes_0.jpg","135","172","64"
"seldesouillac.communityforge.net","44.893576","1.478599","","S.E.L. de Souillac","Système d'Échange Local","http://seldesouillac.communityforge.net/system/files/logo_seldesouillac.jpg","79","66","237"
"seldessapins.communityforge.net","45.972653","4.333081","","SEL des Sapins","Système d'Échange Local entre Beaujolais et Roannais","http://seldessapins.communityforge.net/system/files/logo_seldessapins.png","37","99","31"
"seldesvallees.communityforge.net","48.676720","-1.021730","","SEL des Vallees","","","2","0","0"
"seldeterre.communityforge.net","43.707720","7.334370","","S.E.L. de Terre","Champignon virtuel pour échanger des produits de nos jardins de nos vergers. La terre est généreuse, pourquoi pas nous, vous...?","http://seldeterre.communityforge.net/system/files/sel de Terre logo 4.jpg","60","0","15"
"seldethiais94.communityforge.net","48.7607154","2.3874664","","Seldethiais94","Convivialité et Solidarité!","http://seldethiais94.communityforge.net/system/files/Logo 1 SEL de Thiais - V2 recadré2.png","17","29","16"
"seldethomery.communityforge.net","48.409154","2.784672","","seldethomery.communityforge.net","ici tout me rit","","27","29","20"
"seldeversailles.communityforge.net","48.7996272","2.137528","","SEL de Versailles","Pour changer échangeons car le lien est plus important que le bien","http://seldeversailles.communityforge.net/system/files/logoSEL_0.jpg","73","137","238"
"seldevienne.fr","45.524170","4.878290","","Sel de Vienne","Système d'échange local du pays viennois","http://seldevienne.fr/system/files/Sel-logo-transparent.png","136","134","53"
"seldevillejuif.communityforge.net","48.7919378","2.3575974","","Sel de Villejuif","Le SEL qui pétille","http://seldevillejuif.communityforge.net/system/files/Svilejuif_0.jpg","64","192","90"
"seldicietdailleurs.communityforge.net","44.397248","0.804935","","SEL d'Ici et d'Ailleurs","Pour que ceux d'ici rencontrent ceux d'ailleurs....","http://seldicietdailleurs.communityforge.net/system/files/cf_n.jpg","11","1","1"
"selduciron.communityforge.net","44.849665","-0.450237","","SEL  DU  CIRON","Echangeons pour changer avec le SEL du Sud Gironde","http://selduciron.communityforge.net/system/files/logo selduciron.jpg","14","0","15"
"selducitron.communityforge.net","43.77109381775651","7.49267578125","","SEL du Citron","Réseau d’échange de services, de biens et de savoir faire","http://selducitron.communityforge.net/sites/selducitron.communityforge.net/files/Logo + frise_7.JPG","189","482","421"
"seldudon.communityforge.net","47.628671","-1.834333","","seldudon.communityforge.net","Mettez ici votre slogan","","3","0","0"
"seldugabardan.communityforge.net","43.8919547","0.011560","","SEL DU GABARDAN","Le lien est plus important que le bien","http://seldugabardan.communityforge.net/system/files/index.jpg","25","0","7"
"seldugirou.communityforge.net","43.718500","1.590110","","SEL du Girou","Mettre le SEL sur la table c'est goûter la vie équitable","","4","0","0"
"seldugobanais.communityforge.net","49.5993629","3.3803558","","Sel du Gobanais","Echangeons Solidaire !","","7","0","6"
"selduhautgiffre.communityforge.net","46.084044","6.728173","","SEL","Le lien est plus important que le bien","http://selduhautgiffre.communityforge.net/system/files/logo_1.jpg","10","4","1"
"selduhavre.communityforge.net","49.4913226","0.1153564","","SEL du Havre","Echanger sans argent, ça change ! ","http://selduhavre.communityforge.net/system/files/logo-selduhavre.jpg","59","133","126"
"seldulac.ch","46.1983922","6.142161","","SELduLac","Echangeons, pour changer !","http://seldulac.ch/sites/seldulac.ch/files/sky_seldulac_logo.gif","67","131","144"
"seldulignon.communityforge.net","45.185900","4.217550","","Service d'Echange Local du Lignon","Pour changer, échangeons sans argent","http://seldulignon.communityforge.net/system/files/logo.png","2","0","0"
"seldumaconnais.communityforge.net","46.3082842","4.8298645","","Seldumaconnais","","http://seldumaconnais.communityforge.net/system/files/sel-couleurs-a-imprimer-1.jpg","105","295","227"
"seldumaine.fr","48.000","0.1922334","","SEL du Maine","Un Système d'Echanges Local sarthois (72)","http://seldumaine.fr/sites/seldumaine.fr/files/logo SEL site.gif","118","359","259"
"seldumantois.communityforge.net","48.9793157","1.7207336","","seldumantois.communityforge.net","Bienvenue dans le SEL du Mantois !","http://seldumantois.communityforge.net/system/files/LogoSelduMantois.jpg","44","14","49"
"selduperche.communityforge.net","48.440614","0.793556","","selduperche.communityforge.net","Pour changer, échangeons !","http://selduperche.communityforge.net/system/files/Logo Mademoiselle Zouzou pt.jpg","8","0","9"
"seldusundgau.communityforge.net","47.750839","7.335888","","S E L du Sundgau","Mettez un peu de SEL dans votre vie !","http://seldusundgau.communityforge.net/system/files/Logo SEL du Sundgau.jpg","29","0","29"
"seldutournugeois.communityforge.net","46.561816","4.911953","","Sel du Tournugeois","Association de gens généreux","http://seldutournugeois.communityforge.net/system/files/Tournus.png","48","195","99"
"seleil.communityforge.net","44.3857101","4.9915695",""," Sel'eil 84 / 26 Valréas-Nyons ","La solidarité est précieuse","","25","9","3"
"selenbugey.communityforge.net","45.8754293","5.6651688","","Sel en Bugey",""Le lien est plus important que le bien"","http://selenbugey.communityforge.net/system/files/SEL-EN-BUGEY_logo couleur.jpg","23","5","18"
"selenjoue.org","47.3518499","0.6461334","","Sel de Joué les Tours","Systeme d'Echange Local","http://selenjoue.org/system/files/logo.jpg","47","61","334"
"selensemble.org","43.9463612","4.8106384","","SEL Ensemble Avignon et Environs","Le système d'échange local d'Avignon et environs","http://selensemble.org/system/files/sel-ensemble_0.png","77","215","50"
"selentraide.communityforge.net","47.1747783","-1.6167068","","selentraide.communityforge.net",""La rencontre de l'autre vaut tout l'or du monde"","http://selentraide.communityforge.net/system/files/Logo Sel'entraide.jpg","45","0","38"
"seleri.be","50.712636","4.52156","","SELeri, le SEL de Rixensart, La Hulpe et environs","","http://seleri.be/sites/seleri.be/files/sky_seldulac_logo.jpg","211","827","337"
"selesneux.be","50.5348168","5.568371999999954","","SELesneux","Les feuilles font l'arbre","http://selesneux.be/sites/selesneux.be/files/sky_seldulac_logo.jpg","99","245","58"
"selessentiel.communityforge.net","46.665840","4.291680","","Système d'Echange Local à Sanvignes et ses environs","Sel Essentiel, l'entraide en mode local","http://selessentiel.communityforge.net/system/files/logo sel essentiel.jpg","12","2","1"
"selest-bassin-pompey.communityforge.net","48.765715","6.122699","","Sel Est","Système local d'échanges et d'entraide du bassin de Pompey","http://selest-bassin-pompey.communityforge.net/system/files/2544-tn.jpg","56","107","46"
"selethik.communityforge.net","43.296482","5.369780","","Sel'Ethik","Système d'Echange Local des quartiers sud de Marseille","http://selethik.communityforge.net/system/files/selethik_logo.png","35","102","38"
"selfleurdeseine.communityforge.net","48.4885104","2.6992893","","SEL Fleur de Seine","Les liens sont plus précieux que les biens","http://selfleurdeseine.communityforge.net/system/files/Nouveau logo 3 fleurs CK.jpg","86","415","18"
"selgrandesterres.communityforge.net","45.698027","4.8841095","","SEL des Grandes Terres et SEL de Corbas","Le SEL du Sud Est Lyonnais","http://selgrandesterres.communityforge.net/system/files/echanges.png","64","117","29"
"selidaire.org","47.401366","0.663360","","Association SEL'Idaire " La Maison Commune des SEL"","Association pour l'information et la promotion des SEL francophones","http://selidaire.org/system/files/Sel'idaire-réduit+++.jpg","610","27","13"
"seliguer.communityforge.net","47.9041453","-2.121048","","                                      SEL î Guer","                                     Bro SEL iande","http://seliguer.communityforge.net/system/files/LogoSEL_i_Guer.png","31","18","47"
"seljaime.communityforge.net","43.6030188","1.4374924","","seljaime","« La rencontre de l'autre vaut tout l'or du monde »","","6","0","1"
"seljaune.communityforge.net","50.888243","2.382731","","Le SEL Jaune","Solidarité, Partage, Bien Commun, Nous sommes le changement. !","http://seljaune.communityforge.net/system/files/logo2_0.jpg","55","37","15"
"seljogne.ch","46.6019","7.2046","","SEL de la vallée de la Jogne","Donner - Recevoir - Partager - Se rencontrer","http://seljogne.ch/sites/seljogne.ch/files/logo_arbre_francais_0.jpg","104","314","149"
"sel-la-chaux-de-fonds.communityforge.net","47.1023817","6.8324661","","SEL La Chaux-de-Fonds","Système d'Echanges Local","http://sel-la-chaux-de-fonds.communityforge.net/system/files/Logo.jpg","213","621","374"
"selmalouin.communityforge.net","48.650002","-2.025674","","selmalouin.communityforge.net","Le LIEN vaut mieux que le BIEN.         Echanger pour changer","http://selmalouin.communityforge.net/system/files/Gigapro-wide-stmalo2.jpg","35","3","37"
"sel.marche.be","50.2274416","5.3400421","","march'SEL","","","160","573","170"
"sel-monblanc-saves.communityforge.net","43.414527","1.037667","","Sel de Monblanc en Savès","sel-monblanc-saves.communityforge.net","http://sel-monblanc-saves.communityforge.net/system/files/logo_ok.jpg","55","173","96"
"montsdulyonnais.communityforge.net","45.5902575","4.3184853","","SEL des Monts du Lyonnais ","Je partage, tu partages, il partage, nous partageons, ....","http://montsdulyonnais.communityforge.net/system/files/logo Marie.jpg","57","1","63"
"sel-mortagne-en-transition.communityforge.net","48.522485","0.543078","","SEL - Mortagne en Transition","Échanger biens, savoirs, services, sans argent !","http://sel-mortagne-en-transition.communityforge.net/system/files/MET_pepins_2.jpg","51","28","85"
"selneffe.communityforge.net","50.529616","4.256968","","selneffe.communityforge.net","","http://selneffe.communityforge.net/system/files/bandeau-02_0.jpg","10","0","8"
"selogazion.communityforge.net","50.4443056","4.9849606","","SelOGAzion","La solidarité comme monnaie...","http://selogazion.communityforge.net/system/files/logo_selogazion.jpg","49","24","19"
"selondaine.communityforge.net","45.387638","4.287617","","SEL de l'Ondaine","SEL de l'Ondaine, quelle aubaine !","http://selondaine.communityforge.net/system/files/logo_0.png","86","350","33"
"selonnous.communityforge.net","43.8285828","5.0331116","","SEL'ons-nous","SYSTEME D'ECHANGE LOCAL DE CAVAILLON ET SES ENVIRONS","http://selonnous.communityforge.net/system/files/logoV1selonnous.png","36","124","81"
"selorvaultrousinettes.communityforge.net","47.274344","-1.619405","","S.E.L. d'Orvault "Les Rousinettes"","Le SEL pour créer du lien","http://selorvaultrousinettes.communityforge.net/system/files/logo_rousinettes.jpg","18","0","17"
"seloullins.communityforge.net","45.714822","4.806378","","seloullins.communityforge.net","le lien plutôt que le bien - SEL Cailloullin","http://seloullins.communityforge.net/system/files/logo.jpg","96","311","204"
"selozange.communityforge.net","45.5638236","4.6677303","","  SELozange ","Le LIEN est plus important que le BIEN","http://selozange.communityforge.net/system/files/logo-selozange.png","23","13","19"
"selpaysdecruseilles.communityforge.net","46.033760","6.106631","","selpaysdecruseilles.communityforge.net","Le SEL près de chez vous","","44","195","25"
"selpowaimes.be","50.4159562","6.1138916","","selpowaimes.be","Les rimes font le poème","http://selpowaimes.be/sites/selpowaimes.be/files/sky_seldulac_logo.jpg","56","105","66"
"selraisins.communityforge.net","43.822948","1.724840","","selraisins.communityforge.net","Mettez ici votre slogan","http://selraisins.communityforge.net/system/files/Logo SEL.jpg","3","0","0"
"selrit53.communityforge.net","48.0686192","-0.7501287999999704","","SEL'Rit 53","Echangeons sans argent","http://selrit53.communityforge.net/system/files/Logo fond blanc@28-08-17.png","123","874","317"
"selrivedouce.communityforge.net","44.899903","-0.5194473","","Sel Rive Douce","Le Système d'Echange Local de la Rive Droite Bordelaise","http://selrivedouce.communityforge.net/system/files/logo sel.png","12","17","20"
"sel-saint-medard-en-jalles.communityforge.net","44.8955254","-0.7141113","","SEL St Médard en Jalles","Système d'Echange Local, association à but non lucratif","http://sel-saint-medard-en-jalles.communityforge.net/system/files/logo_sel_de_cergy_couleur.png","38","23","69"
"sel-saintremy.communityforge.net","43.788652","4.831343","","sel-saintremy.communityforge.net","Le lien plutôt que le bien","http://sel-saintremy.communityforge.net/system/files/logo_dec3élargi_1.jpg","19","4","14"
"selsansfrontiere.communityforge.net","46.204391","6.143158","","SEL sans frontière","Coordination Suisse Romande & France Voisine ","http://selsansfrontiere.communityforge.net/system/files/csrfv.jpg","71","140","94"
"selsmu.communityforge.net","45.152198","5.838325","","SEL de Saint Martin d'Uriage","","http://selsmu.communityforge.net/system/files/Raspberry_Pi_Logo.png","55","137","70"
"selsourire.be","50.747644","4.3626022","","Selsourire - Smilets","Tendre la main c'est apporter un sourire à l'autre","http://selsourire.be/system/files/SelsourireLogoDEFDEF_Print.png","31","11","9"
"selstjean.communityforge.net","45.4810771","4.4298935","","Sel de St-Jean","Système d'Échange Local de Saint-Jean Bonnefonds, La Talaudière, Sorbiers","http://selstjean.communityforge.net/system/files/Capture d’écran 2016-09-23 à 17.08.44.png","54","624","51"
"selstloubes.communityforge.net","44.917650","-0.429750","","SEL de Saint LOUBES","Système d'échange local de l'association Saint-Loubès en transition","http://selstloubes.communityforge.net/system/files/Logo_Transition_predefinitif.jpg","39","18","37"
"selstseb.asso.st","47.2052255","-1.5052986","","SEL St Seb","Pour changer, échangeons...","http://selstseb.asso.st/system/files/Logo.gif","27","1","34"
"selsudalliervichy.communityforge.net","46.116545","3.409697","","selsudalliervichy.fr","Échangeons pour changer le monde","http://selsudalliervichy.communityforge.net/system/files/Logo pastille gd format.gif","25","2","20"
"selsudsaintebaume.communityforge.net","43.195665","5.79884","","selsudsaintebaume.org","","http://selsudsaintebaume.communityforge.net/system/files/LogoSSSB-1.jpg","94","184","54"
"selthonon.communityforge.net","46.3734643","6.4783287","","S.E.L. THONON-LEMAN","Se rendre service, ça n'a pas de prix","http://selthonon.communityforge.net/system/files/logo-stl.jpg","16","13","7"
"sel-troclot.communityforge.net","44.512080","1.262880","","sel-troclot.communityforge.net","Mettez ici votre slogan","","1","0","0"
"selusate.communityforge.net","43.861040","0.103060","","selusate.communityforge.net","Le site d'échanges pour Eauze et ses environs","http://selusate.communityforge.net/system/files/LOGO SELUSATES MAINS.jpg","25","1","35"
"selvaldorge.communityforge.net","48.628","2.315","","SEL Val d'Orge","Echanger, partager autrement","http://selvaldorge.communityforge.net/system/files/Selvaldorge.jpg","9","0","3"
"sel-vascq.communityforge.net","50.6224594","3.1331635","","SEL de Villeneuve d'Ascq",""L'Arbre" : Le Lien est plus Important que le Bien","http://sel-vascq.communityforge.net/system/files/arbre_logo_0_0.gif","156","1366","825"
"selwanze.communityforge.net","50.532154","5.218629","","selwanze.communityforge.net","SEL Wanze","","19","12","27"
"selwyntimebank.net.nz","-43.6423962","172.4780765","","Selwyn Timebank","Time Banking refers to a pattern of reciprocal service exchange which uses units of time as currency.","","73","171","30"
"selyon.communityforge.net","46.670543","-1.426970","","selyon.communityforge.net","“Nous affirmons ainsi que les liens sont plus importants que les biens.”","http://selyon.communityforge.net/system/files/logo.selyon.jpg","19","3","49"
"sel-yvette.communityforge.net","48.718930","2.233500","","SEL de l'Yvette","Echangez, rencontrez, partagez : enrichissez votre vie par le lien !","http://sel-yvette.communityforge.net/system/files/foret torrent.jpg","29","18","94"
"senonais.communityforge.net","48.1514281","3.273157","","SEL du Sénonais","Pour changer, échangeons !","http://senonais.communityforge.net/sites/senonais.communityforge.net/files/sky_seldulac_logo.jpg","16","55","5"
"seve09.communityforge.net","43.145580","1.750720","","seve09.communityforge.net","Mettez ici votre slogan","","1","0","0"
"sled.communityforge.net","51.389609","-1.647949","","sled.communityforge.net","Your slogan here","","1","0","0"
"smecka.communityforge.net","49.817493","15.472962","","smecka.communityforge.net","Your slogan here","","1","0","0"
"souri.communityforge.net","47.7478404","7.4072299","","souri'SEL ","Système Echange Local","http://souri.communityforge.net/system/files/logo_1.jpg","19","40","0"
"suresnesensel.communityforge.net","48.8706995","2.2207832","","suresnesensel.org","Chacun peut y mettre son grain","http://suresnesensel.communityforge.net/system/files/MMONOT_SEL_SURESNES_LOGO.png","36","6","5"
"talensel.communityforge.net","44.8020576","-0.5893135","","Club TalenSeL","Système d'échange local ","http://talensel.communityforge.net/system/files/logo_grand.png","46","0","21"
"tauschring-eifelgold.be","50.2814419","6.1267662","","TAUSCHRING EIFELGOLD","Partnerschaftliches Geben und Nehmen","http://tauschring-eifelgold.be/system/files/Logo_TR_Eifelgold_kl_0_0.jpg","23","0","14"
"tersel07.communityforge.net","45.086423","4.627967","","tersel07.communityforge.net","SEL du HAUT VIVARAIS","http://tersel07.communityforge.net/system/files/T07.logo ombré_0.jpg","14","3","9"
"tigysel.communityforge.net","47.795123","2.197965","","TigySEL","Service d'Echange Local des environs de Tigy","http://tigysel.communityforge.net/system/files/LOGO TIGYSEL.png","7","3","6"
"tournesel18.communityforge.net","46.7256241","2.5064278","","tournesel18.communityforge.net","Convivialité et Partage en Berry","http://tournesel18.communityforge.net/system/files/logo.jpg","2","0","1"
"tousensel.com","48.9474208","2.1442223","","Tous en SEL","Le SEL de Maisons-Laffitte, Mesnil Le Roi, Sartrouville","http://tousensel.com/system/files/LogoMLDD-TousEnSel-site.png","116","164","52"
"troqueurs-de-lin.communityforge.net","48.1908101","-2.8478622","","troqueurs-de-lin.communityforge.net","Mettez ici votre slogan","http://troqueurs-de-lin.communityforge.net/system/files/lin.jpg","25","6","31"
"uneileversel.communityforge.net","45.9427945","-1.3053131","","uneileversel","donne la priorite au relationnel face à la monnaie","http://uneileversel.communityforge.net/system/files/logo_sel_70x30_couleur.png","31","0","36"
"unis-vers-sel.net","50.723360","4.871150","","Unis-Vers-Sel (asbl)","Soyons dans le présent, partageons notre temps!","http://unis-vers-sel.net/sites/unis-vers-sel.net/files/Log_72ppp.png","81","250","65"
"universlesel.communityforge.net","49.89420588298097","5.078709125518799","","UniverSel","UniverSel Bertrix-Paliseul. Ardennais certes, mais solidaires! ","http://universlesel.communityforge.net/sites/univers-sel.be/files/sky_seldulac_logo.png","13","10","13"
"univillersel.communityforge.net","50.518928","4.474636","","uniVillerSEL.communityforge.net","Mettez ici votre slogan","","2","0","0"
"valdeblore.communityforge.net","44.1176627","7.2070313","","Le Sel du Mélèze","créer du lien en montagne","http://valdeblore.communityforge.net/system/files/logo_meleze.jpg","25","6","30"
"verdonensel.communityforge.net","43.725898","5.814290","","verdonensel.communityforge.net","Le SEL de la Maison du Partage pour Vinon-sur-Verdon et les environs","http://verdonensel.communityforge.net/system/files/galets gris.jpg","24","14","13"
"viguerie.communityforge.net","44.833690","1.164250","","Croc'en SEL","Le partage, c'est l'abondance !","http://viguerie.communityforge.net/system/files/croc05.png","39","31","52"